{"props":{"pageProps":{"user":{"allProperties":{}},"srpData":{"query":{"0":"/type-single-family-home/price-na-2150/sqft-1250/available-na-08_31_2022","searchSlug":"Pinellas-County_FL"},"variables":{"query":{"location":"Pinellas County, FL","property_status":"for_rent","filters":{"prop_type":["single-family-home"],"price":{"max":2150},"sqft":{"min":1250,"max":null},"move_in_date":{"min":"","max":"2022-08-31"},"locations":[]},"sort":[],"boundary":null,"discovery_mode":false},"limit":43,"offset":0,"zohoQuery":{"geo":{"area_type":"county","_id":"county:fl_pinellas","_score":0.992,"county":"Pinellas County","state_code":"FL","country":"USA","centroid":{"lon":-82.7395188,"lat":27.9031078},"slug_id":"Pinellas-County_FL","geo_id":"faf257ff-f9c7-5aa4-95d1-abdaf82b27b9"},"silo":"search_result_page","location":"Pinellas County, FL","property_status":"for_rent","filters":{"prop_type":["single-family-home"],"price":{"max":2150},"sqft":{"min":1250,"max":null},"move_in_date":{"min":"","max":"2022-08-31"}}},"medianPriceSlug":"pinellas-county_fl","sort":[{"field":"completeness","direction":"desc"},{"field":"photo_count","direction":"desc"}]},"searchSlug":"Pinellas-County_FL","filterPathSpec":"/type-single-family-home/price-na-2150/sqft-1250/available-na-08_31_2022","geo":{"area_type":"county","_id":"county:fl_pinellas","_score":0.992,"county":"Pinellas County","state_code":"FL","country":"USA","centroid":{"lon":-82.7395188,"lat":27.9031078},"slug_id":"Pinellas-County_FL","geo_id":"faf257ff-f9c7-5aa4-95d1-abdaf82b27b9"},"userAgent":"Mozilla/5.0 (Windows NT 10.0; Win64; x64; rv:104.0) Gecko/20100101 Firefox/104.0","srpCriteriaCookie":{"pg":1,"locSlug":"Pinellas-County_FL","sprefix":"/apartments","typ":"1","mnp":"","mxp":2150,"sqft":1250,"mnmid":"","mxmid":"2022-08-31","county":"Pinellas County","state_code":"FL","area_type":"county","search_type":"county","county_needed_for_uniq":false,"state_id":"FL","lat":27.9031078,"long":-82.7395188,"loc":"Pinellas County, FL"},"filterValues":{"type":{"value":"single-family-home"},"price":{"min":"","max":2150},"sqft":{"min":1250},"available":{"min":"","max":"2022-08-31"},"move_in_date":{"min":"","max":"2022-08-31"}},"isListView":true,"isListVisible":true,"isClustersVisible":false,"pageNumber":1,"searchResults":{"geo":{"parents":[{"geo_type":"state","slug_id":"Florida","name":"Florida"}],"geo_statistics":{"market_trends":{"active_listing_count":2743,"rental_listing_price":2213,"listing_price_sqft":301,"listing_price":419900,"age_days":45,"median_sold_price":375000,"month_to_month":{"active_rental_listing_count_percent_change":-0.12}}},"recommended_cities":{"geos":[{"city":"Tampa","state_code":"FL","geo_type":"city","slug_id":"Tampa_FL","geo_statistics":{"housing_market":{"median_rent_price":2151}}},{"city":"Clearwater","state_code":"FL","geo_type":"city","slug_id":"Clearwater_FL","geo_statistics":{"housing_market":{"median_rent_price":2117}}},{"city":"New Port Richey","state_code":"FL","geo_type":"city","slug_id":"New-Port-Richey_FL","geo_statistics":{"housing_market":{"median_rent_price":1800}}},{"city":"Largo","state_code":"FL","geo_type":"city","slug_id":"Largo_FL","geo_statistics":{"housing_market":{"median_rent_price":1900}}},{"city":"Palm Harbor","state_code":"FL","geo_type":"city","slug_id":"Palm-Harbor_FL","geo_statistics":{"housing_market":{"median_rent_price":2119}}},{"city":"Seminole","state_code":"FL","geo_type":"city","slug_id":"Seminole_FL","geo_statistics":{"housing_market":{"median_rent_price":2475}}},{"city":"Dunedin","state_code":"FL","geo_type":"city","slug_id":"Dunedin_FL","geo_statistics":{"housing_market":{"median_rent_price":2250}}},{"city":"Tarpon Springs","state_code":"FL","geo_type":"city","slug_id":"Tarpon-Springs_FL","geo_statistics":{"housing_market":{"median_rent_price":2200}}},{"city":"Odessa","state_code":"FL","geo_type":"city","slug_id":"Odessa_FL","geo_statistics":{"housing_market":{"median_rent_price":3072}}},{"city":"Holiday","state_code":"FL","geo_type":"city","slug_id":"Holiday_FL","geo_statistics":{"housing_market":{"median_rent_price":1747}}},{"city":"Pinellas Park","state_code":"FL","geo_type":"city","slug_id":"Pinellas-Park_FL","geo_statistics":{"housing_market":{"median_rent_price":2388}}},{"city":"Pass A Grille Beach","state_code":"FL","geo_type":"city","slug_id":"Pass-A-Grille-Beach_FL","geo_statistics":{"housing_market":{"median_rent_price":3550}}},{"city":"Pass A Grille","state_code":"FL","geo_type":"city","slug_id":"Pass-A-Grille_FL","geo_statistics":{"housing_market":{"median_rent_price":3550}}},{"city":"Clearwater Beach","state_code":"FL","geo_type":"city","slug_id":"Clearwater-Beach_FL","geo_statistics":{"housing_market":{"median_rent_price":3950}}},{"city":"East Lake","state_code":"FL","geo_type":"city","slug_id":"East-Lake_FL","geo_statistics":{"housing_market":{"median_rent_price":2235}}},{"city":"Gulfport","state_code":"FL","geo_type":"city","slug_id":"Gulfport_FL","geo_statistics":{"housing_market":{"median_rent_price":3625}}},{"city":"Oldsmar","state_code":"FL","geo_type":"city","slug_id":"Oldsmar_FL","geo_statistics":{"housing_market":{"median_rent_price":2069}}},{"city":"Keystone","state_code":"FL","geo_type":"city","slug_id":"Keystone_FL","geo_statistics":{"housing_market":{"median_rent_price":3100}}},{"city":"Treasure Island","state_code":"FL","geo_type":"city","slug_id":"Treasure-Island_FL","geo_statistics":{"housing_market":{"median_rent_price":2900}}},{"city":"Trinity","state_code":"FL","geo_type":"city","slug_id":"Trinity_FL","geo_statistics":{"housing_market":{"median_rent_price":2400}}}]},"recommended_neighborhoods":{"geos":[{"neighborhood":"East Lake Woodlands","city":"Oldsmar","state_code":"FL","geo_type":"neighborhood","slug_id":"East-Lake-Woodlands_Oldsmar_FL","geo_statistics":{"housing_market":{"median_rent_price":null}}},{"neighborhood":"Sand Key","city":"Clearwater Beach","state_code":"FL","geo_type":"neighborhood","slug_id":"Sand-Key_Clearwater-Beach_FL","geo_statistics":{"housing_market":{"median_rent_price":3950}}},{"neighborhood":"Highland Lakes","city":"Palm Harbor","state_code":"FL","geo_type":"neighborhood","slug_id":"Highland-Lakes_Palm-Harbor_FL","geo_statistics":{"housing_market":{"median_rent_price":null}}},{"neighborhood":"East Bay","city":"Largo","state_code":"FL","geo_type":"neighborhood","slug_id":"East-Bay_Largo_FL","geo_statistics":{"housing_market":{"median_rent_price":null}}},{"neighborhood":"Ridgemoor","city":"Palm Harbor","state_code":"FL","geo_type":"neighborhood","slug_id":"Ridgemoor_Palm-Harbor_FL","geo_statistics":{"housing_market":{"median_rent_price":null}}},{"neighborhood":"Cove Cay","city":"Clearwater","state_code":"FL","geo_type":"neighborhood","slug_id":"Cove-Cay_Clearwater_FL","geo_statistics":{"housing_market":{"median_rent_price":null}}},{"neighborhood":"Orange Lake Village","city":"Largo","state_code":"FL","geo_type":"neighborhood","slug_id":"Orange-Lake-Village_Largo_FL","geo_statistics":{"housing_market":{"median_rent_price":null}}},{"neighborhood":"Old Northwest","city":"Largo","state_code":"FL","geo_type":"neighborhood","slug_id":"Old-Northwest_Largo_FL","geo_statistics":{"housing_market":{"median_rent_price":null}}},{"neighborhood":"Fairway Village","city":"Largo","state_code":"FL","geo_type":"neighborhood","slug_id":"Fairway-Village_Largo_FL","geo_statistics":{"housing_market":{"median_rent_price":null}}},{"neighborhood":"Cobb's Landing","city":"Palm Harbor","state_code":"FL","geo_type":"neighborhood","slug_id":"Cobbs-Landing_Palm-Harbor_FL","geo_statistics":{"housing_market":{"median_rent_price":null}}},{"neighborhood":"Ozona","city":"Palm Harbor","state_code":"FL","geo_type":"neighborhood","slug_id":"Ozona_Palm-Harbor_FL","geo_statistics":{"housing_market":{"median_rent_price":null}}},{"neighborhood":"Crescent Oaks","city":"Tarpon Springs","state_code":"FL","geo_type":"neighborhood","slug_id":"Crescent-Oaks_Tarpon-Springs_FL","geo_statistics":{"housing_market":{"median_rent_price":null}}},{"neighborhood":"Gleneagles","city":"Palm Harbor","state_code":"FL","geo_type":"neighborhood","slug_id":"Gleneagles_Palm-Harbor_FL","geo_statistics":{"housing_market":{"median_rent_price":1751}}},{"neighborhood":"Crystal Beach","city":"Palm Harbor","state_code":"FL","geo_type":"neighborhood","slug_id":"Crystal-Beach_Palm-Harbor_FL","geo_statistics":{"housing_market":{"median_rent_price":null}}},{"neighborhood":"Fox Chase","city":"Palm Harbor","state_code":"FL","geo_type":"neighborhood","slug_id":"Fox-Chase_Palm-Harbor_FL","geo_statistics":{"housing_market":{"median_rent_price":null}}},{"neighborhood":"Shipwatch Yacht Club","city":"Largo","state_code":"FL","geo_type":"neighborhood","slug_id":"Shipwatch-Yacht-Club_Largo_FL","geo_statistics":{"housing_market":{"median_rent_price":null}}},{"neighborhood":"Woodfield","city":"Tarpon Springs","state_code":"FL","geo_type":"neighborhood","slug_id":"Woodfield_Tarpon-Springs_FL","geo_statistics":{"housing_market":{"median_rent_price":null}}},{"neighborhood":"Westlake Village","city":"Palm Harbor","state_code":"FL","geo_type":"neighborhood","slug_id":"Westlake-Village_Palm-Harbor_FL","geo_statistics":{"housing_market":{"median_rent_price":null}}},{"neighborhood":"Tarpon Woods","city":"Palm Harbor","state_code":"FL","geo_type":"neighborhood","slug_id":"Tarpon-Woods_Palm-Harbor_FL","geo_statistics":{"housing_market":{"median_rent_price":null}}},{"neighborhood":"Pride","city":"Clearwater","state_code":"FL","geo_type":"neighborhood","slug_id":"Pride_Clearwater_FL","geo_statistics":{"housing_market":{"median_rent_price":null}}}]},"recommended_counties":{"geos":[{"county":"Hillsborough","state_code":"FL","geo_type":"county","slug_id":"Hillsborough-County_FL","geo_statistics":{"housing_market":{"median_rent_price":2200}}},{"county":"Pasco","state_code":"FL","geo_type":"county","slug_id":"Pasco-County_FL","geo_statistics":{"housing_market":{"median_rent_price":2297}}},{"county":"Manatee","state_code":"FL","geo_type":"county","slug_id":"Manatee-County_FL","geo_statistics":{"housing_market":{"median_rent_price":2859}}},{"county":"Sarasota","state_code":"FL","geo_type":"county","slug_id":"Sarasota-County_FL","geo_statistics":{"housing_market":{"median_rent_price":2883}}},{"county":"Polk","state_code":"FL","geo_type":"county","slug_id":"Polk-County_FL","geo_statistics":{"housing_market":{"median_rent_price":2100}}},{"county":"Lake","state_code":"FL","geo_type":"county","slug_id":"Lake-County_FL","geo_statistics":{"housing_market":{"median_rent_price":2230}}},{"county":"Hernando","state_code":"FL","geo_type":"county","slug_id":"Hernando-County_FL","geo_statistics":{"housing_market":{"median_rent_price":2195}}},{"county":"Charlotte","state_code":"FL","geo_type":"county","slug_id":"Charlotte-County_FL","geo_statistics":{"housing_market":{"median_rent_price":2695}}},{"county":"Citrus","state_code":"FL","geo_type":"county","slug_id":"Citrus-County_FL","geo_statistics":{"housing_market":{"median_rent_price":1875}}},{"county":"Sumter","state_code":"FL","geo_type":"county","slug_id":"Sumter-County_FL","geo_statistics":{"housing_market":{"median_rent_price":2500}}},{"county":"DeSoto","state_code":"FL","geo_type":"county","slug_id":"DeSoto-County_FL","geo_statistics":{"housing_market":{"median_rent_price":null}}},{"county":"Hardee","state_code":"FL","geo_type":"county","slug_id":"Hardee-County_FL","geo_statistics":{"housing_market":{"median_rent_price":null}}},{"county":"Marion","state_code":"FL","geo_type":"county","slug_id":"Marion-County_FL","geo_statistics":{"housing_market":{"median_rent_price":1900}}},{"county":"Taylor","state_code":"FL","geo_type":"county","slug_id":"Taylor-County_FL","geo_statistics":{"housing_market":{"median_rent_price":null}}},{"county":"Indian River","state_code":"FL","geo_type":"county","slug_id":"Indian-River-County_FL","geo_statistics":{"housing_market":{"median_rent_price":2800}}},{"county":"Clay","state_code":"FL","geo_type":"county","slug_id":"Clay-County_FL","geo_statistics":{"housing_market":{"median_rent_price":1892}}},{"county":"Putnam","state_code":"FL","geo_type":"county","slug_id":"Putnam-County_FL","geo_statistics":{"housing_market":{"median_rent_price":1279}}},{"county":"Bradford","state_code":"FL","geo_type":"county","slug_id":"Bradford-County_FL","geo_statistics":{"housing_market":{"median_rent_price":null}}},{"county":"Volusia","state_code":"FL","geo_type":"county","slug_id":"Volusia-County_FL","geo_statistics":{"housing_market":{"median_rent_price":2245}}},{"county":"Okeechobee","state_code":"FL","geo_type":"county","slug_id":"Okeechobee-County_FL","geo_statistics":{"housing_market":{"median_rent_price":null}}}]},"recommended_zips":{"geos":[{"postal_code":"34698","geo_type":"postal_code","slug_id":"34698","geo_statistics":{"housing_market":{"median_rent_price":2325}}},{"postal_code":"33706","geo_type":"postal_code","slug_id":"33706","geo_statistics":{"housing_market":{"median_rent_price":3550}}},{"postal_code":"34655","geo_type":"postal_code","slug_id":"34655","geo_statistics":{"housing_market":{"median_rent_price":1913}}},{"postal_code":"33707","geo_type":"postal_code","slug_id":"33707","geo_statistics":{"housing_market":{"median_rent_price":2575}}},{"postal_code":"33756","geo_type":"postal_code","slug_id":"33756","geo_statistics":{"housing_market":{"median_rent_price":2262}}},{"postal_code":"33626","geo_type":"postal_code","slug_id":"33626","geo_statistics":{"housing_market":{"median_rent_price":2340}}},{"postal_code":"33708","geo_type":"postal_code","slug_id":"33708","geo_statistics":{"housing_market":{"median_rent_price":2800}}},{"postal_code":"34683","geo_type":"postal_code","slug_id":"34683","geo_statistics":{"housing_market":{"median_rent_price":2040}}},{"postal_code":"34689","geo_type":"postal_code","slug_id":"34689","geo_statistics":{"housing_market":{"median_rent_price":2200}}},{"postal_code":"33702","geo_type":"postal_code","slug_id":"33702","geo_statistics":{"housing_market":{"median_rent_price":2114}}},{"postal_code":"33703","geo_type":"postal_code","slug_id":"33703","geo_statistics":{"housing_market":{"median_rent_price":5750}}},{"postal_code":"34684","geo_type":"postal_code","slug_id":"34684","geo_statistics":{"housing_market":{"median_rent_price":2195}}},{"postal_code":"33767","geo_type":"postal_code","slug_id":"33767","geo_statistics":{"housing_market":{"median_rent_price":3950}}},{"postal_code":"33713","geo_type":"postal_code","slug_id":"33713","geo_statistics":{"housing_market":{"median_rent_price":2316}}},{"postal_code":"33710","geo_type":"postal_code","slug_id":"33710","geo_statistics":{"housing_market":{"median_rent_price":2000}}},{"postal_code":"33709","geo_type":"postal_code","slug_id":"33709","geo_statistics":{"housing_market":{"median_rent_price":1800}}},{"postal_code":"33705","geo_type":"postal_code","slug_id":"33705","geo_statistics":{"housing_market":{"median_rent_price":2325}}},{"postal_code":"33764","geo_type":"postal_code","slug_id":"33764","geo_statistics":{"housing_market":{"median_rent_price":2720}}},{"postal_code":"33755","geo_type":"postal_code","slug_id":"33755","geo_statistics":{"housing_market":{"median_rent_price":2700}}},{"postal_code":"33556","geo_type":"postal_code","slug_id":"33556","geo_statistics":{"housing_market":{"median_rent_price":3045}}}]}},"home_search":{"costar_counts":{"costar_total":0,"non_costar_total":9},"count":9,"total":13,"aggregation":null,"results":[{"permalink":"70-James-Ct_Oldsmar_FL_34677_M67976-39155","lead_attributes":{"show_contact_an_agent":true},"branding":[{"type":"Office","photo":null,"name":null}],"price_reduced_date":null,"price_reduced_amount":null,"matterport":false,"virtual_tours":null,"advertisers":[{"email":null,"fulfillment_id":null,"href":null,"mls_set":null,"name":null,"nrds_id":null,"office":{"email":"rent+425864@tenantturnermail.com","fulfillment_id":null,"mls_set":null,"href":null,"name":null,"phones":[{"ext":null,"number":"8337746323","primary":false,"trackable":null,"type":"primary"}]},"phones":null}],"description":{"baths":2,"baths_full":2,"baths_full_calc":2,"baths_half":null,"baths_3qtr":null,"baths_1qtr":null,"beds":3,"garage":null,"lot_sqft":null,"name":null,"sqft":1445,"sub_type":null,"type":"single_family","year_built":null,"baths_min":null,"baths_max":null,"beds_max":null,"beds_min":null,"garage_min":null,"garage_max":null,"sqft_max":null,"sqft_min":null},"flags":{"is_pending":null,"is_deal_available":null,"is_for_rent":true,"is_garage_present":null,"is_senior_community":null,"is_new_listing":null},"href":"https://www.realtor.com/realestateandhomes-detail/70-James-Ct_Oldsmar_FL_34677_M67976-39155","last_price_change_amount":null,"last_price_change_date":null,"last_update_date":"2022-07-16T23:03:06Z","list_date":null,"list_price":2150,"list_price_min":null,"list_price_max":null,"listing_id":"2945439623","location":{"address":{"city":"Oldsmar","coordinate":{"lat":28.074085,"lon":-82.701507},"country":"USA","line":"70 James Ct","postal_code":"34677","state":"Florida","state_code":"FL","street_direction":null,"street_name":"James","street_number":"70","street_post_direction":null,"street_suffix":"Ct","unit":null},"county":{"fips_code":"12103","name":"Pinellas","state_code":"FL"},"search_areas":[{"city":"east lake","state_code":"fl"},{"city":"oldsmar","state_code":"fl"}]},"photo_count":10,"photos":[{"description":null,"href":"https://ap.rdcpix.com/6736bd0d7f3bb57ac5a2072429473068l-m2141201132s.jpg","type":null,"title":null,"tags":null},{"description":null,"href":"https://ap.rdcpix.com/6736bd0d7f3bb57ac5a2072429473068l-m2110344357s.jpg","type":null,"title":null,"tags":null},{"description":null,"href":"https://ap.rdcpix.com/6736bd0d7f3bb57ac5a2072429473068l-m3644578979s.jpg","type":null,"title":null,"tags":null}],"pet_policy":{"cats":true,"dogs":true,"text":null},"primary_photo":{"description":null,"href":"https://ap.rdcpix.com/6736bd0d7f3bb57ac5a2072429473068l-m2141201132s.jpg","type":null},"open_houses":null,"other_listings":{"rdc":[{"listing_id":"2945439623","status":"for_rent","primary":true},{"listing_id":"630146742","status":"off_market","primary":null},{"listing_id":"549721482","status":"off_market","primary":null},{"listing_id":"583614318","status":"off_market","primary":null},{"listing_id":"528451054","status":"off_market","primary":null},{"listing_id":"583591210","status":"off_market","primary":null},{"listing_id":"524900202","status":"sold","primary":null},{"listing_id":"583845194","status":"off_market","primary":null},{"listing_id":"516349774","status":"off_market","primary":null}]},"products":null,"property_history":null,"property_id":"6797639155","source":{"agents":null,"id":"TURN","listing_id":"425864","community_id":null,"name":"TenantTurner","type":"unit_rental"},"status":"for_rent","suppression_flags":{"has_suppress_list_date":true,"has_suppress_foreclosure":true},"tags":["pets_allowed","vaulted_ceiling"],"when_indexed":"2022-08-23T05:17:10.127Z","home_photos":{"collection":[{"description":null,"href":"https://ap.rdcpix.com/6736bd0d7f3bb57ac5a2072429473068l-m2141201132s.jpg","type":null,"title":null,"tags":null},{"description":null,"href":"https://ap.rdcpix.com/6736bd0d7f3bb57ac5a2072429473068l-m2110344357s.jpg","type":null,"title":null,"tags":null},{"description":null,"href":"https://ap.rdcpix.com/6736bd0d7f3bb57ac5a2072429473068l-m3644578979s.jpg","type":null,"title":null,"tags":null}],"count":3}},{"permalink":"6425-41st-Ave-N_St-Petersburg_FL_33709_M68106-48730","lead_attributes":{"show_contact_an_agent":true},"branding":[{"type":"Office","photo":null,"name":null}],"price_reduced_date":null,"price_reduced_amount":null,"matterport":false,"virtual_tours":null,"advertisers":[{"email":null,"fulfillment_id":null,"href":null,"mls_set":null,"name":null,"nrds_id":null,"office":{"email":"listings+60487024@reply.avail.co","fulfillment_id":null,"mls_set":null,"href":null,"name":null,"phones":[{"ext":null,"number":"7274361598","primary":false,"trackable":null,"type":"primary"}]},"phones":null}],"description":{"baths":2,"baths_full":2,"baths_full_calc":2,"baths_half":null,"baths_3qtr":null,"baths_1qtr":null,"beds":2,"garage":null,"lot_sqft":null,"name":null,"sqft":1297,"sub_type":null,"type":"single_family","year_built":null,"baths_min":null,"baths_max":null,"beds_max":null,"beds_min":null,"garage_min":null,"garage_max":null,"sqft_max":null,"sqft_min":null},"flags":{"is_pending":null,"is_deal_available":null,"is_for_rent":true,"is_garage_present":true,"is_senior_community":null,"is_new_listing":true},"href":"https://www.realtor.com/realestateandhomes-detail/6425-41st-Ave-N_St-Petersburg_FL_33709_M68106-48730","last_price_change_amount":null,"last_price_change_date":null,"last_update_date":"2022-08-22T15:03:52Z","list_date":"2022-08-21T16:03:31Z","list_price":2050,"list_price_min":null,"list_price_max":null,"listing_id":"2946927519","location":{"address":{"city":"Saint Petersburg","coordinate":{"lat":27.809367,"lon":-82.725194},"country":"USA","line":"6425 41st Ave N","postal_code":"33709","state":"Florida","state_code":"FL","street_direction":null,"street_name":"41st","street_number":"6425","street_post_direction":"N","street_suffix":"Ave","unit":null},"county":{"fips_code":"12103","name":"Pinellas","state_code":"FL"},"search_areas":[{"city":"saint petersburg","state_code":"fl"},{"city":"st petersburg","state_code":"fl"},{"city":"st. petersburg","state_code":"fl"},{"city":"west lealman","state_code":"fl"}]},"photo_count":16,"photos":[{"description":null,"href":"https://ap.rdcpix.com/c4e3ad316bc8522e5e59713235dac561l-m3722514045s.jpg","type":null,"title":null,"tags":null},{"description":null,"href":"https://ap.rdcpix.com/c4e3ad316bc8522e5e59713235dac561l-m3331323710s.jpg","type":null,"title":null,"tags":null},{"description":null,"href":"https://ap.rdcpix.com/c4e3ad316bc8522e5e59713235dac561l-m2782264625s.jpg","type":null,"title":null,"tags":null}],"pet_policy":{"cats":true,"dogs":true,"text":null},"primary_photo":{"description":null,"href":"https://ap.rdcpix.com/c4e3ad316bc8522e5e59713235dac561l-m3722514045s.jpg","type":null},"open_houses":null,"other_listings":{"rdc":[{"listing_id":"2946874656","status":"for_sale","primary":true},{"listing_id":"2946927519","status":"for_rent","primary":true}]},"products":null,"property_history":null,"property_id":"6810648730","source":{"agents":null,"id":"AVAL","listing_id":"60487024","community_id":null,"name":"Avail","type":"unit_rental"},"status":"for_rent","suppression_flags":null,"tags":["dishwasher","pets_allowed","washer_dryer","garage_1_or_more","updated_kitchen","rental_property"],"when_indexed":"2022-08-23T05:17:00.075Z","home_photos":{"collection":[{"description":null,"href":"https://ap.rdcpix.com/c4e3ad316bc8522e5e59713235dac561l-m3722514045s.jpg","type":null,"title":null,"tags":null},{"description":null,"href":"https://ap.rdcpix.com/c4e3ad316bc8522e5e59713235dac561l-m3331323710s.jpg","type":null,"title":null,"tags":null},{"description":null,"href":"https://ap.rdcpix.com/c4e3ad316bc8522e5e59713235dac561l-m2782264625s.jpg","type":null,"title":null,"tags":null}],"count":3}},{"permalink":"720-Newton-Ave-S_St-Petersburg_FL_33701_M54861-08700","lead_attributes":{"show_contact_an_agent":true},"branding":[{"type":"Office","photo":null,"name":"Vintage Real Estate Services"}],"price_reduced_date":null,"price_reduced_amount":null,"matterport":false,"virtual_tours":[{"href":"https://www.propertypanorama.com/instaview/stellar/T3395156"}],"advertisers":[{"email":"john@hatcherian.com","fulfillment_id":"2843858","href":null,"mls_set":"A-ORFL-261545377","name":"John Hatcherian","nrds_id":null,"office":{"email":"admin@vintagerealestate.net","fulfillment_id":"1519711","mls_set":"O-ORFL-771072","href":"WWW.VINATAGEREALESTATE.NET","name":"Vintage Real Estate Services","phones":[{"ext":null,"number":"8136840001","primary":false,"trackable":null,"type":"Office"}]},"phones":[{"ext":null,"number":"7279197284","primary":false,"trackable":null,"type":"Office"},{"ext":null,"number":"7279197284","primary":false,"trackable":null,"type":"Mobile"}]}],"description":{"baths":2,"baths_full":2,"baths_full_calc":2,"baths_half":null,"baths_3qtr":null,"baths_1qtr":null,"beds":4,"garage":1,"lot_sqft":5018,"name":null,"sqft":1320,"sub_type":null,"type":"single_family","year_built":2006,"baths_min":null,"baths_max":null,"beds_max":null,"beds_min":null,"garage_min":null,"garage_max":null,"sqft_max":null,"sqft_min":null},"flags":{"is_pending":null,"is_deal_available":null,"is_for_rent":true,"is_garage_present":true,"is_senior_community":null,"is_new_listing":false},"href":"https://www.realtor.com/realestateandhomes-detail/720-Newton-Ave-S_St-Petersburg_FL_33701_M54861-08700","last_price_change_amount":null,"last_price_change_date":null,"last_update_date":"2022-08-11T02:56:38Z","list_date":"2022-08-11T01:05:33Z","list_price":2100,"list_price_min":null,"list_price_max":null,"listing_id":"2946612218","location":{"address":{"city":"Saint Petersburg","coordinate":{"lat":27.756181,"lon":-82.642969},"country":"USA","line":"720 Newton Ave S","postal_code":"33701","state":"Florida","state_code":"FL","street_direction":null,"street_name":"Newton","street_number":"720","street_post_direction":"S","street_suffix":"Ave","unit":null},"county":{"fips_code":"12103","name":"Pinellas","state_code":"FL"},"search_areas":[{"city":"saint petersburg","state_code":"fl"},{"city":"st petersburg","state_code":"fl"},{"city":"st. petersburg","state_code":"fl"}]},"photo_count":16,"photos":[{"description":null,"href":"https://ap.rdcpix.com/2ae84b0a4858a6e994ea1338c7c8d6b8l-m1243389498s.jpg","type":null,"title":null,"tags":null},{"description":null,"href":"https://ap.rdcpix.com/2ae84b0a4858a6e994ea1338c7c8d6b8l-m1569836018s.jpg","type":null,"title":null,"tags":null},{"description":null,"href":"https://ap.rdcpix.com/2ae84b0a4858a6e994ea1338c7c8d6b8l-m2790787817s.jpg","type":null,"title":null,"tags":null}],"pet_policy":null,"primary_photo":{"description":null,"href":"https://ap.rdcpix.com/2ae84b0a4858a6e994ea1338c7c8d6b8l-m1243389498s.jpg","type":null},"open_houses":null,"other_listings":{"rdc":[{"listing_id":"2946612218","status":"for_rent","primary":true},{"listing_id":"2929959054","status":"off_market","primary":null},{"listing_id":"2930001229","status":"off_market","primary":null},{"listing_id":"620951514","status":"off_market","primary":null},{"listing_id":"613624870","status":"off_market","primary":null},{"listing_id":"580950246","status":"off_market","primary":null},{"listing_id":"579247282","status":"off_market","primary":null},{"listing_id":"559790562","status":"off_market","primary":null},{"listing_id":"517893730","status":"off_market","primary":null},{"listing_id":"523654790","status":"other","primary":null},{"listing_id":"585911846","status":"off_market","primary":null},{"listing_id":"502207734","status":"off_market","primary":null}]},"products":{"product_attributes":null,"products":["core.agent","core.broker"]},"property_history":null,"property_id":"5486108700","source":{"agents":[{"agent_id":"261545377","agent_name":"John Hatcherian"}],"id":"ORFL","listing_id":"T3395156","community_id":null,"name":"StellarMLS","type":"mls"},"status":"for_rent","suppression_flags":null,"tags":["central_air","central_heat","dining_room","dishwasher","laundry_room","two_or_more_stories","garage_1_or_more","fenced_yard","master_bedroom"],"when_indexed":"2022-08-23T06:16:30.322Z","home_photos":{"collection":[{"description":null,"href":"https://ap.rdcpix.com/2ae84b0a4858a6e994ea1338c7c8d6b8l-m1243389498s.jpg","type":null,"title":null,"tags":null},{"description":null,"href":"https://ap.rdcpix.com/2ae84b0a4858a6e994ea1338c7c8d6b8l-m1569836018s.jpg","type":null,"title":null,"tags":null},{"description":null,"href":"https://ap.rdcpix.com/2ae84b0a4858a6e994ea1338c7c8d6b8l-m2790787817s.jpg","type":null,"title":null,"tags":null}],"count":3}},{"permalink":"3931-Grove-St-S_St-Petersburg_FL_33705_M55621-91019","lead_attributes":{"show_contact_an_agent":true},"branding":[{"type":"Office","photo":null,"name":"RENT SOLUTIONS"}],"price_reduced_date":null,"price_reduced_amount":null,"matterport":false,"virtual_tours":[{"href":"https://www.propertypanorama.com/instaview/stellar/T3396122"}],"advertisers":[{"email":"michael.obrien1@cbrealty.com","fulfillment_id":"4360460","href":"http://mycondotampabay.cbintouch.com/","mls_set":"A-ORFL-727009217","name":"Michael O'Brien","nrds_id":null,"office":{"email":"steveo@rentsolutions.com","fulfillment_id":"2887668","mls_set":"O-ORFL-779809","href":null,"name":"RENT SOLUTIONS","phones":[{"ext":null,"number":"8135795597","primary":false,"trackable":null,"type":"Office"}]},"phones":[{"ext":null,"number":"2677515888","primary":false,"trackable":null,"type":"Office"}]}],"description":{"baths":1,"baths_full":1,"baths_full_calc":1,"baths_half":null,"baths_3qtr":null,"baths_1qtr":null,"beds":2,"garage":null,"lot_sqft":5955,"name":null,"sqft":1300,"sub_type":null,"type":"single_family","year_built":1950,"baths_min":null,"baths_max":null,"beds_max":null,"beds_min":null,"garage_min":null,"garage_max":null,"sqft_max":null,"sqft_min":null},"flags":{"is_pending":null,"is_deal_available":null,"is_for_rent":true,"is_garage_present":null,"is_senior_community":null,"is_new_listing":false},"href":"https://www.realtor.com/realestateandhomes-detail/3931-Grove-St-S_St-Petersburg_FL_33705_M55621-91019","last_price_change_amount":null,"last_price_change_date":null,"last_update_date":"2022-08-15T21:16:33Z","list_date":"2022-08-15T16:41:23Z","list_price":1950,"list_price_min":null,"list_price_max":null,"listing_id":"2946732626","location":{"address":{"city":"Saint Petersburg","coordinate":{"lat":27.732677,"lon":-82.643702},"country":"USA","line":"3931 Grove St S","postal_code":"33705","state":"Florida","state_code":"FL","street_direction":null,"street_name":"Grove","street_number":"3931","street_post_direction":"S","street_suffix":"St","unit":null},"county":{"fips_code":"12103","name":"Pinellas","state_code":"FL"},"search_areas":[{"city":"saint petersburg","state_code":"fl"},{"city":"st petersburg","state_code":"fl"},{"city":"st. petersburg","state_code":"fl"}]},"photo_count":20,"photos":[{"description":null,"href":"https://ap.rdcpix.com/77069f1dcec2d8a6631c42d0db625f9el-m3992613812s.jpg","type":null,"title":null,"tags":null},{"description":null,"href":"https://ap.rdcpix.com/77069f1dcec2d8a6631c42d0db625f9el-m3195155027s.jpg","type":null,"title":null,"tags":null},{"description":null,"href":"https://ap.rdcpix.com/77069f1dcec2d8a6631c42d0db625f9el-m1089701614s.jpg","type":null,"title":null,"tags":null}],"pet_policy":{"cats":true,"dogs":true,"text":null},"primary_photo":{"description":null,"href":"https://ap.rdcpix.com/77069f1dcec2d8a6631c42d0db625f9el-m3992613812s.jpg","type":null},"open_houses":null,"other_listings":{"rdc":[{"listing_id":"2946732626","status":"for_rent","primary":true},{"listing_id":"622238142","status":"sold","primary":null},{"listing_id":"579370510","status":"sold","primary":null},{"listing_id":"563122974","status":"off_market","primary":null}]},"products":{"product_attributes":null,"products":["core.agent","core.broker"]},"property_history":null,"property_id":"5562191019","source":{"agents":[{"agent_id":"727009217","agent_name":"Michael O Brien"}],"id":"ORFL","listing_id":"T3396122","community_id":null,"name":"StellarMLS","type":"mls"},"status":"for_rent","suppression_flags":null,"tags":["central_air","central_heat","dishwasher","pets_allowed","single_story","updated_kitchen","big_yard","fenced_yard","rental_property"],"when_indexed":"2022-08-23T05:44:30.276Z","home_photos":{"collection":[{"description":null,"href":"https://ap.rdcpix.com/77069f1dcec2d8a6631c42d0db625f9el-m3992613812s.jpg","type":null,"title":null,"tags":null},{"description":null,"href":"https://ap.rdcpix.com/77069f1dcec2d8a6631c42d0db625f9el-m3195155027s.jpg","type":null,"title":null,"tags":null},{"description":null,"href":"https://ap.rdcpix.com/77069f1dcec2d8a6631c42d0db625f9el-m1089701614s.jpg","type":null,"title":null,"tags":null}],"count":3}},{"permalink":"1138-Jambalana-Dr_Holiday_FL_34691_M67665-39153","lead_attributes":{"show_contact_an_agent":true},"branding":[{"type":"Office","photo":null,"name":null}],"price_reduced_date":null,"price_reduced_amount":null,"matterport":false,"virtual_tours":[{"href":"https://www.propertypanorama.com/instaview/stellar/U8161927"}],"advertisers":[{"email":null,"fulfillment_id":null,"href":null,"mls_set":null,"name":null,"nrds_id":null,"office":{"email":"rentalservice@move.com","fulfillment_id":null,"mls_set":null,"href":null,"name":null,"phones":[{"ext":null,"number":"8333676963","primary":false,"trackable":null,"type":"primary"}]},"phones":null}],"description":{"baths":2,"baths_full":2,"baths_full_calc":2,"baths_half":null,"baths_3qtr":null,"baths_1qtr":null,"beds":2,"garage":null,"lot_sqft":null,"name":null,"sqft":1510,"sub_type":null,"type":"single_family","year_built":1986,"baths_min":null,"baths_max":null,"beds_max":null,"beds_min":null,"garage_min":null,"garage_max":null,"sqft_max":null,"sqft_min":null},"flags":{"is_pending":null,"is_deal_available":null,"is_for_rent":true,"is_garage_present":true,"is_senior_community":null,"is_new_listing":null},"href":"https://www.realtor.com/realestateandhomes-detail/1138-Jambalana-Dr_Holiday_FL_34691_M67665-39153","last_price_change_amount":null,"last_price_change_date":null,"last_update_date":"2022-08-23T01:10:56Z","list_date":null,"list_price":2095,"list_price_min":null,"list_price_max":null,"listing_id":"2946516558","location":{"address":{"city":"Holiday","coordinate":{"lat":28.175857,"lon":-82.77008},"country":"USA","line":"1138 Jambalana Dr","postal_code":"34691","state":"Florida","state_code":"FL","street_direction":null,"street_name":"Jambalana","street_number":"1138","street_post_direction":null,"street_suffix":"Dr","unit":null},"county":{"fips_code":"12101","name":"Pasco","state_code":"FL"},"search_areas":[{"city":"holiday","state_code":"fl"}]},"photo_count":33,"photos":[{"description":null,"href":"https://ap.rdcpix.com/a4aaf3e81b9033d564b611f4b966c102l-m3319241237s.jpg","type":null,"title":null,"tags":null},{"description":null,"href":"https://ap.rdcpix.com/a4aaf3e81b9033d564b611f4b966c102l-m3520876310s.jpg","type":null,"title":null,"tags":null},{"description":null,"href":"https://ap.rdcpix.com/a4aaf3e81b9033d564b611f4b966c102l-m3210956601s.jpg","type":null,"title":null,"tags":null}],"pet_policy":{"cats":true,"dogs":true,"text":null},"primary_photo":{"description":null,"href":"https://ap.rdcpix.com/a4aaf3e81b9033d564b611f4b966c102l-m3319241237s.jpg","type":null},"open_houses":null,"other_listings":{"rdc":[{"listing_id":"2946516558","status":"for_rent","primary":true},{"listing_id":"2942944293","status":"sold","primary":null}]},"products":null,"property_history":null,"property_id":"6766539153","source":{"agents":null,"id":"RXUN","listing_id":"7635647","community_id":null,"name":"RentlinxUnits","type":"unit_rental"},"status":"for_rent","suppression_flags":{"has_suppress_list_date":true,"has_suppress_foreclosure":true},"tags":["central_air","dishwasher","pets_allowed","recreation_facilities","garage_1_or_more","master_suite","rental_property"],"when_indexed":"2022-08-23T05:17:04.642Z","home_photos":{"collection":[{"description":null,"href":"https://ap.rdcpix.com/a4aaf3e81b9033d564b611f4b966c102l-m3319241237s.jpg","type":null,"title":null,"tags":null},{"description":null,"href":"https://ap.rdcpix.com/a4aaf3e81b9033d564b611f4b966c102l-m3520876310s.jpg","type":null,"title":null,"tags":null},{"description":null,"href":"https://ap.rdcpix.com/a4aaf3e81b9033d564b611f4b966c102l-m3210956601s.jpg","type":null,"title":null,"tags":null}],"count":3}},{"permalink":"5740-Bacardi-Ct_Holiday_FL_34690_M60645-60595","lead_attributes":{"show_contact_an_agent":true},"branding":[{"type":"Office","photo":null,"name":null}],"price_reduced_date":"2022-08-20T03:16:08.953Z","price_reduced_amount":54,"matterport":false,"virtual_tours":null,"advertisers":[{"email":null,"fulfillment_id":null,"href":null,"mls_set":null,"name":null,"nrds_id":null,"office":{"email":"leasing@invitationhomes.com","fulfillment_id":null,"mls_set":null,"href":null,"name":null,"phones":[{"ext":null,"number":"8889904684","primary":false,"trackable":null,"type":"primary"}]},"phones":null}],"description":{"baths":2,"baths_full":2,"baths_full_calc":2,"baths_half":null,"baths_3qtr":null,"baths_1qtr":null,"beds":3,"garage":null,"lot_sqft":null,"name":null,"sqft":1748,"sub_type":null,"type":"single_family","year_built":null,"baths_min":null,"baths_max":null,"beds_max":null,"beds_min":null,"garage_min":null,"garage_max":null,"sqft_max":null,"sqft_min":null},"flags":{"is_pending":null,"is_deal_available":null,"is_for_rent":true,"is_garage_present":null,"is_senior_community":null,"is_new_listing":null},"href":"https://www.realtor.com/realestateandhomes-detail/5740-Bacardi-Ct_Holiday_FL_34690_M60645-60595","last_price_change_amount":-54,"last_price_change_date":"2022-08-20T03:16:08.953Z","last_update_date":"2022-08-20T03:16:08Z","list_date":null,"list_price":2045,"list_price_min":null,"list_price_max":null,"listing_id":"2945423813","location":{"address":{"city":"Holiday","coordinate":{"lat":28.184348,"lon":-82.719149},"country":"USA","line":"5740 Bacardi Ct","postal_code":"34690","state":"Florida","state_code":"FL","street_direction":null,"street_name":"Bacardi","street_number":"5740","street_post_direction":null,"street_suffix":"Ct","unit":null},"county":{"fips_code":"12101","name":"Pasco","state_code":"FL"},"search_areas":[{"city":"holiday","state_code":"fl"}]},"photo_count":15,"photos":[{"description":null,"href":"https://ap.rdcpix.com/36ddd2f92edce94fcb707299934ac0e6l-m4039978494s.jpg","type":null,"title":null,"tags":null},{"description":null,"href":"https://ap.rdcpix.com/36ddd2f92edce94fcb707299934ac0e6l-m682926922s.jpg","type":null,"title":null,"tags":null},{"description":null,"href":"https://ap.rdcpix.com/36ddd2f92edce94fcb707299934ac0e6l-m2144534328s.jpg","type":null,"title":null,"tags":null}],"pet_policy":{"cats":true,"dogs":true,"text":null},"primary_photo":{"description":null,"href":"https://ap.rdcpix.com/36ddd2f92edce94fcb707299934ac0e6l-m4039978494s.jpg","type":null},"open_houses":null,"other_listings":{"rdc":[{"listing_id":"2945423813","status":"for_rent","primary":true},{"listing_id":"2916611350","status":"off_market","primary":null},{"listing_id":"611501470","status":"off_market","primary":null},{"listing_id":"592705954","status":"off_market","primary":null},{"listing_id":"624898070","status":"off_market","primary":null},{"listing_id":"637479566","status":"off_market","primary":null},{"listing_id":"611968978","status":"off_market","primary":null},{"listing_id":"593083606","status":"off_market","primary":null},{"listing_id":"593302426","status":"off_market","primary":null},{"listing_id":"590016082","status":"sold","primary":null}]},"products":null,"property_history":null,"property_id":"6064560595","source":{"agents":null,"id":"INVH","listing_id":"e20bace6-6b02-494c-be29-891716d0e89f","community_id":null,"name":"InvitationHomes","type":"unit_rental"},"status":"for_rent","suppression_flags":{"has_suppress_list_date":true,"has_suppress_foreclosure":true},"tags":["pets_allowed","community_swimming_pool","fenced_yard","floor_plan","rental_property","smart_homes","hoa"],"when_indexed":"2022-08-23T05:30:39.932Z","home_photos":{"collection":[{"description":null,"href":"https://ap.rdcpix.com/36ddd2f92edce94fcb707299934ac0e6l-m4039978494s.jpg","type":null,"title":null,"tags":null},{"description":null,"href":"https://ap.rdcpix.com/36ddd2f92edce94fcb707299934ac0e6l-m682926922s.jpg","type":null,"title":null,"tags":null},{"description":null,"href":"https://ap.rdcpix.com/36ddd2f92edce94fcb707299934ac0e6l-m2144534328s.jpg","type":null,"title":null,"tags":null}],"count":3}},{"permalink":"8247-Tahr-Ave_New-Port-Richey_FL_34653_M69650-03042","lead_attributes":{"show_contact_an_agent":true},"branding":[{"type":"Office","photo":null,"name":null}],"price_reduced_date":"2022-08-19T01:38:46.671Z","price_reduced_amount":40,"matterport":false,"virtual_tours":null,"advertisers":[{"email":null,"fulfillment_id":null,"href":null,"mls_set":null,"name":null,"nrds_id":null,"office":{"email":"leadtmp@rentprogress.com","fulfillment_id":null,"mls_set":null,"href":null,"name":null,"phones":[{"ext":null,"number":"8137735085","primary":false,"trackable":null,"type":"primary"}]},"phones":null}],"description":{"baths":2,"baths_full":2,"baths_full_calc":2,"baths_half":null,"baths_3qtr":null,"baths_1qtr":null,"beds":3,"garage":null,"lot_sqft":null,"name":null,"sqft":1596,"sub_type":null,"type":"single_family","year_built":null,"baths_min":null,"baths_max":null,"beds_max":null,"beds_min":null,"garage_min":null,"garage_max":null,"sqft_max":null,"sqft_min":null},"flags":{"is_pending":null,"is_deal_available":null,"is_for_rent":true,"is_garage_present":null,"is_senior_community":null,"is_new_listing":null},"href":"https://www.realtor.com/realestateandhomes-detail/8247-Tahr-Ave_New-Port-Richey_FL_34653_M69650-03042","last_price_change_amount":-40,"last_price_change_date":"2022-08-19T01:38:46.671Z","last_update_date":"2022-08-18T22:37:03Z","list_date":null,"list_price":2085,"list_price_min":null,"list_price_max":null,"listing_id":"2941304388","location":{"address":{"city":"New Port Richey","coordinate":{"lat":28.225943,"lon":-82.677692},"country":"USA","line":"8247 Tahr Ave","postal_code":"34653","state":"Florida","state_code":"FL","street_direction":null,"street_name":"Tahr","street_number":"8247","street_post_direction":null,"street_suffix":"Ave","unit":null},"county":{"fips_code":"12101","name":"Pasco","state_code":"FL"},"search_areas":[{"city":"new port richey","state_code":"fl"}]},"photo_count":16,"photos":[{"description":null,"href":"https://ap.rdcpix.com/c9d84ac87f165e1ce4a67f645e76e871l-m3515585499s.jpg","type":null,"title":null,"tags":null},{"description":null,"href":"https://ap.rdcpix.com/c9d84ac87f165e1ce4a67f645e76e871l-m1332722768s.jpg","type":null,"title":null,"tags":null},{"description":null,"href":"https://ap.rdcpix.com/c9d84ac87f165e1ce4a67f645e76e871l-m914945762s.jpg","type":null,"title":null,"tags":null}],"pet_policy":{"cats":true,"dogs":true,"text":null},"primary_photo":{"description":null,"href":"https://ap.rdcpix.com/c9d84ac87f165e1ce4a67f645e76e871l-m3515585499s.jpg","type":null},"open_houses":null,"other_listings":{"rdc":[{"listing_id":"2941304388","status":"for_rent","primary":true},{"listing_id":"2863675831","status":"off_market","primary":null},{"listing_id":"2913936340","status":"off_market","primary":null},{"listing_id":"2794550156","status":"sold","primary":null}]},"products":null,"property_history":null,"property_id":"6965003042","source":{"agents":null,"id":"PROG","listing_id":"330447","community_id":null,"name":"ProgressResidential","type":"unit_rental"},"status":"for_rent","suppression_flags":{"has_suppress_list_date":true,"has_suppress_foreclosure":true},"tags":["pets_allowed","recreation_facilities","vaulted_ceiling","master_suite","rental_property","farm","ranch","smart_homes"],"when_indexed":"2022-08-23T20:10:17.131Z","home_photos":{"collection":[{"description":null,"href":"https://ap.rdcpix.com/c9d84ac87f165e1ce4a67f645e76e871l-m3515585499s.jpg","type":null,"title":null,"tags":null},{"description":null,"href":"https://ap.rdcpix.com/c9d84ac87f165e1ce4a67f645e76e871l-m1332722768s.jpg","type":null,"title":null,"tags":null},{"description":null,"href":"https://ap.rdcpix.com/c9d84ac87f165e1ce4a67f645e76e871l-m914945762s.jpg","type":null,"title":null,"tags":null}],"count":3}},{"permalink":"3426-Madison-St-1_Holiday_FL_34690_M91159-67790","lead_attributes":{"show_contact_an_agent":true},"branding":[{"type":"Office","photo":null,"name":null}],"price_reduced_date":"2022-08-18T00:04:07.845Z","price_reduced_amount":50,"matterport":false,"virtual_tours":null,"advertisers":[{"email":null,"fulfillment_id":null,"href":null,"mls_set":null,"name":null,"nrds_id":null,"office":{"email":"leasing@mynd.co","fulfillment_id":null,"mls_set":null,"href":null,"name":null,"phones":[{"ext":null,"number":"8333676963","primary":false,"trackable":null,"type":"primary"}]},"phones":null}],"description":{"baths":2,"baths_full":2,"baths_full_calc":2,"baths_half":null,"baths_3qtr":null,"baths_1qtr":null,"beds":2,"garage":null,"lot_sqft":null,"name":null,"sqft":1486,"sub_type":null,"type":"single_family","year_built":1980,"baths_min":null,"baths_max":null,"beds_max":null,"beds_min":null,"garage_min":null,"garage_max":null,"sqft_max":null,"sqft_min":null},"flags":{"is_pending":null,"is_deal_available":null,"is_for_rent":true,"is_garage_present":true,"is_senior_community":null,"is_new_listing":false},"href":"https://www.realtor.com/realestateandhomes-detail/3426-Madison-St-1_Holiday_FL_34690_M91159-67790","last_price_change_amount":-50,"last_price_change_date":"2022-08-18T00:04:07.845Z","last_update_date":"2022-08-18T00:04:07Z","list_date":"2022-07-28T00:02:44Z","list_price":1945,"list_price_min":null,"list_price_max":null,"listing_id":"2945841735","location":{"address":{"city":"Holiday","coordinate":{"lat":28.209078,"lon":-82.715093},"country":"USA","line":"3426 Madison St Unit 1","postal_code":"34690","state":"Florida","state_code":"FL","street_direction":null,"street_name":"Madison","street_number":"3426","street_post_direction":null,"street_suffix":"St","unit":"Unit 1"},"county":{"fips_code":"12101","name":"Pasco","state_code":"FL"},"search_areas":[{"city":"elfers","state_code":"fl"},{"city":"holiday","state_code":"fl"}]},"photo_count":18,"photos":[{"description":null,"href":"https://ap.rdcpix.com/711eb1db92f8e9c668c845a162bb2fccl-m483811657s.jpg","type":null,"title":null,"tags":null},{"description":null,"href":"https://ap.rdcpix.com/711eb1db92f8e9c668c845a162bb2fccl-m1616732931s.jpg","type":null,"title":null,"tags":null},{"description":null,"href":"https://ap.rdcpix.com/711eb1db92f8e9c668c845a162bb2fccl-m1713930706s.jpg","type":null,"title":null,"tags":null}],"pet_policy":{"cats":true,"dogs":true,"text":null},"primary_photo":{"description":null,"href":"https://ap.rdcpix.com/711eb1db92f8e9c668c845a162bb2fccl-m483811657s.jpg","type":null},"open_houses":null,"other_listings":{"rdc":[{"listing_id":"2945841735","status":"for_rent","primary":true}]},"products":null,"property_history":null,"property_id":"9115967790","source":{"agents":null,"id":"MYND","listing_id":"ba7od73dn2adkeel","community_id":null,"name":"Mynd.co","type":"unit_rental"},"status":"for_rent","suppression_flags":null,"tags":["dishwasher","pets_allowed","washer_dryer","garage_1_or_more","rental_property","medicalcare"],"when_indexed":"2022-08-23T06:44:23.645Z","home_photos":{"collection":[{"description":null,"href":"https://ap.rdcpix.com/711eb1db92f8e9c668c845a162bb2fccl-m483811657s.jpg","type":null,"title":null,"tags":null},{"description":null,"href":"https://ap.rdcpix.com/711eb1db92f8e9c668c845a162bb2fccl-m1616732931s.jpg","type":null,"title":null,"tags":null},{"description":null,"href":"https://ap.rdcpix.com/711eb1db92f8e9c668c845a162bb2fccl-m1713930706s.jpg","type":null,"title":null,"tags":null}],"count":3}},{"permalink":"1138-Jambalana-Dr-1_Holiday_FL_34691_M97997-15409","lead_attributes":{"show_contact_an_agent":true},"branding":[{"type":"Office","photo":null,"name":null}],"price_reduced_date":null,"price_reduced_amount":null,"matterport":false,"virtual_tours":null,"advertisers":[{"email":null,"fulfillment_id":null,"href":null,"mls_set":null,"name":null,"nrds_id":null,"office":{"email":"leasing@mynd.co","fulfillment_id":null,"mls_set":null,"href":null,"name":null,"phones":[{"ext":null,"number":"8333676963","primary":false,"trackable":null,"type":"primary"}]},"phones":null}],"description":{"baths":2,"baths_full":2,"baths_full_calc":2,"baths_half":null,"baths_3qtr":null,"baths_1qtr":null,"beds":2,"garage":null,"lot_sqft":null,"name":null,"sqft":1510,"sub_type":null,"type":"single_family","year_built":1986,"baths_min":null,"baths_max":null,"beds_max":null,"beds_min":null,"garage_min":null,"garage_max":null,"sqft_max":null,"sqft_min":null},"flags":{"is_pending":null,"is_deal_available":null,"is_for_rent":true,"is_garage_present":true,"is_senior_community":null,"is_new_listing":false},"href":"https://www.realtor.com/realestateandhomes-detail/1138-Jambalana-Dr-1_Holiday_FL_34691_M97997-15409","last_price_change_amount":null,"last_price_change_date":null,"last_update_date":"2022-08-16T00:03:11Z","list_date":"2022-08-07T00:02:43Z","list_price":2095,"list_price_min":null,"list_price_max":null,"listing_id":"2946504827","location":{"address":{"city":"Holiday","coordinate":{"lat":28.175857,"lon":-82.77008},"country":"USA","line":"1138 Jambalana Dr Unit 1","postal_code":"34691","state":"Florida","state_code":"FL","street_direction":null,"street_name":"Jambalana","street_number":"1138","street_post_direction":null,"street_suffix":"Dr","unit":"Unit 1"},"county":{"fips_code":"12101","name":"Pasco","state_code":"FL"},"search_areas":[{"city":"holiday","state_code":"fl"}]},"photo_count":33,"photos":[{"description":null,"href":"https://ap.rdcpix.com/12087982c510778c0f8b7b9fac9c8983l-m404987605s.jpg","type":null,"title":null,"tags":null},{"description":null,"href":"https://ap.rdcpix.com/12087982c510778c0f8b7b9fac9c8983l-m2801411126s.jpg","type":null,"title":null,"tags":null},{"description":null,"href":"https://ap.rdcpix.com/12087982c510778c0f8b7b9fac9c8983l-m898877378s.jpg","type":null,"title":null,"tags":null}],"pet_policy":{"cats":true,"dogs":true,"text":null},"primary_photo":{"description":null,"href":"https://ap.rdcpix.com/12087982c510778c0f8b7b9fac9c8983l-m404987605s.jpg","type":null},"open_houses":null,"other_listings":{"rdc":[{"listing_id":"2946504827","status":"for_rent","primary":true}]},"products":null,"property_history":null,"property_id":"9799715409","source":{"agents":null,"id":"MYND","listing_id":"nfjmd0tdfjocc8ha","community_id":null,"name":"Mynd.co","type":"unit_rental"},"status":"for_rent","suppression_flags":null,"tags":["dishwasher","pets_allowed","washer_dryer","garage_1_or_more","master_suite","rental_property"],"when_indexed":"2022-08-23T06:49:40.569Z","home_photos":{"collection":[{"description":null,"href":"https://ap.rdcpix.com/12087982c510778c0f8b7b9fac9c8983l-m404987605s.jpg","type":null,"title":null,"tags":null},{"description":null,"href":"https://ap.rdcpix.com/12087982c510778c0f8b7b9fac9c8983l-m2801411126s.jpg","type":null,"title":null,"tags":null},{"description":null,"href":"https://ap.rdcpix.com/12087982c510778c0f8b7b9fac9c8983l-m898877378s.jpg","type":null,"title":null,"tags":null}],"count":3}},{"permalink":"5248-School-Rd_New-Port-Richey_FL_34653_M60695-02444","lead_attributes":{"show_contact_an_agent":true},"branding":[{"type":"Office","photo":null,"name":"Palm Leaf Property Management"}],"price_reduced_date":null,"price_reduced_amount":null,"matterport":false,"virtual_tours":null,"advertisers":[{"email":"office@palmleafpm.com","fulfillment_id":"3876069","href":null,"mls_set":"A-ORFL-261546013","name":"NANCY GREENWOOD","nrds_id":null,"office":{"email":"office@palmleafpm.com","fulfillment_id":"0","mls_set":"O-ORFL-781178","href":null,"name":"Palm Leaf Property Management","phones":[{"ext":null,"number":"(813) 616-6000","primary":false,"trackable":null,"type":"Office"}]},"phones":[{"ext":null,"number":"8136166000","primary":false,"trackable":null,"type":"Office"}]}],"description":{"baths":2,"baths_full":2,"baths_full_calc":2,"baths_half":null,"baths_3qtr":null,"baths_1qtr":null,"beds":3,"garage":null,"lot_sqft":8556,"name":null,"sqft":1690,"sub_type":null,"type":"single_family","year_built":1972,"baths_min":null,"baths_max":null,"beds_max":null,"beds_min":null,"garage_min":null,"garage_max":null,"sqft_max":null,"sqft_min":null},"flags":{"is_pending":null,"is_deal_available":null,"is_for_rent":true,"is_garage_present":null,"is_senior_community":null,"is_new_listing":false},"href":"https://www.realtor.com/realestateandhomes-detail/5248-School-Rd_New-Port-Richey_FL_34653_M60695-02444","last_price_change_amount":null,"last_price_change_date":null,"last_update_date":"2022-08-18T20:55:13Z","list_date":"2022-07-14T00:23:16Z","list_price":1775,"list_price_min":null,"list_price_max":null,"listing_id":"2945319634","location":{"address":{"city":"New Port Richey","coordinate":{"lat":28.235472,"lon":-82.71419},"country":"USA","line":"5248 School Rd","postal_code":"34653","state":"Florida","state_code":"FL","street_direction":null,"street_name":"School","street_number":"5248","street_post_direction":null,"street_suffix":"Rd","unit":null},"county":{"fips_code":"12101","name":"Pasco","state_code":"FL"},"search_areas":[{"city":"new port richey","state_code":"fl"}]},"photo_count":11,"photos":[{"description":null,"href":"https://ap.rdcpix.com/8c88a499bb64d4ea491b22daca03befdl-m2663935877s.jpg","type":null,"title":null,"tags":null},{"description":null,"href":"https://ap.rdcpix.com/8c88a499bb64d4ea491b22daca03befdl-m2327968107s.jpg","type":null,"title":null,"tags":null},{"description":null,"href":"https://ap.rdcpix.com/8c88a499bb64d4ea491b22daca03befdl-m3009064391s.jpg","type":null,"title":null,"tags":null}],"pet_policy":{"cats":true,"dogs":true,"text":null},"primary_photo":{"description":null,"href":"https://ap.rdcpix.com/8c88a499bb64d4ea491b22daca03befdl-m2663935877s.jpg","type":null},"open_houses":null,"other_listings":{"rdc":[{"listing_id":"2945319634","status":"for_rent","primary":true},{"listing_id":"2937574023","status":"off_market","primary":null},{"listing_id":"582961462","status":"off_market","primary":null}]},"products":{"product_attributes":null,"products":["core.agent"]},"property_history":null,"property_id":"6069502444","source":{"agents":[{"agent_id":"261546013","agent_name":"Nancy Greenwood"}],"id":"ORFL","listing_id":"U8170001","community_id":null,"name":"StellarMLS","type":"mls"},"status":"for_rent","suppression_flags":null,"tags":["central_air","central_heat","pets_allowed","single_story","master_suite","park","shopping"],"when_indexed":"2022-08-23T05:29:29.786Z","home_photos":{"collection":[{"description":null,"href":"https://ap.rdcpix.com/8c88a499bb64d4ea491b22daca03befdl-m2663935877s.jpg","type":null,"title":null,"tags":null},{"description":null,"href":"https://ap.rdcpix.com/8c88a499bb64d4ea491b22daca03befdl-m2327968107s.jpg","type":null,"title":null,"tags":null},{"description":null,"href":"https://ap.rdcpix.com/8c88a499bb64d4ea491b22daca03befdl-m3009064391s.jpg","type":null,"title":null,"tags":null}],"count":3}},{"permalink":"5116-Plantation-Dr_Holiday_FL_34690_M61190-92375","lead_attributes":{"show_contact_an_agent":true},"branding":[{"type":"Office","photo":null,"name":"INVESTPRO PROPERTIES INC"}],"price_reduced_date":"2022-08-23T14:05:47.359Z","price_reduced_amount":50,"matterport":false,"virtual_tours":[{"href":"https://view.ricohtours.com/7742e914-71bb-4d68-920e-a71678e42545"}],"advertisers":[{"email":"don@remaxusa.net","fulfillment_id":"0","href":null,"mls_set":"A-ORFL-283513033","name":"Donald Arnold","nrds_id":null,"office":{"email":"montym@investproinc.com","fulfillment_id":"0","mls_set":"O-ORFL-276532978","href":null,"name":"INVESTPRO PROPERTIES INC","phones":[{"ext":null,"number":"(561) 203-7022","primary":false,"trackable":null,"type":"Office"}]},"phones":[{"ext":null,"number":"(727) 623-6326","primary":false,"trackable":null,"type":"Mobile"}]}],"description":{"baths":2,"baths_full":2,"baths_full_calc":2,"baths_half":null,"baths_3qtr":null,"baths_1qtr":null,"beds":3,"garage":2,"lot_sqft":6000,"name":null,"sqft":1446,"sub_type":null,"type":"single_family","year_built":1989,"baths_min":null,"baths_max":null,"beds_max":null,"beds_min":null,"garage_min":null,"garage_max":null,"sqft_max":null,"sqft_min":null},"flags":{"is_pending":null,"is_deal_available":null,"is_for_rent":true,"is_garage_present":true,"is_senior_community":null,"is_new_listing":false},"href":"https://www.realtor.com/realestateandhomes-detail/5116-Plantation-Dr_Holiday_FL_34690_M61190-92375","last_price_change_amount":-50,"last_price_change_date":"2022-08-23T14:05:47.359Z","last_update_date":"2022-08-23T00:43:27Z","list_date":"2022-07-27T00:23:50Z","list_price":2050,"list_price_min":null,"list_price_max":null,"listing_id":"2945793271","location":{"address":{"city":"Holiday","coordinate":{"lat":28.204119,"lon":-82.729575},"country":"USA","line":"5116 Plantation Dr","postal_code":"34690","state":"Florida","state_code":"FL","street_direction":null,"street_name":"Plantation","street_number":"5116","street_post_direction":null,"street_suffix":"Dr","unit":null},"county":{"fips_code":"12101","name":"Pasco","state_code":"FL"},"search_areas":[{"city":"elfers","state_code":"fl"},{"city":"holiday","state_code":"fl"}]},"photo_count":20,"photos":[{"description":null,"href":"https://ap.rdcpix.com/2b8dbe746a28c11785bb66204eb6a1f5l-m4205770613s.jpg","type":null,"title":null,"tags":null},{"description":null,"href":"https://ap.rdcpix.com/2b8dbe746a28c11785bb66204eb6a1f5l-m1141089924s.jpg","type":null,"title":null,"tags":null},{"description":null,"href":"https://ap.rdcpix.com/2b8dbe746a28c11785bb66204eb6a1f5l-m3706770928s.jpg","type":null,"title":null,"tags":null}],"pet_policy":{"cats":true,"dogs":true,"text":null},"primary_photo":{"description":null,"href":"https://ap.rdcpix.com/2b8dbe746a28c11785bb66204eb6a1f5l-m4205770613s.jpg","type":null},"open_houses":null,"other_listings":{"rdc":[{"listing_id":"2945793271","status":"for_rent","primary":true},{"listing_id":"2932291080","status":"off_market","primary":null},{"listing_id":"2930200914","status":"sold","primary":null}]},"products":null,"property_history":null,"property_id":"6119092375","source":{"agents":[{"agent_id":"283513033","agent_name":"Donald Arnold"}],"id":"ORFL","listing_id":"T3391464","community_id":null,"name":"StellarMLS","type":"mls"},"status":"for_rent","suppression_flags":null,"tags":["central_air","central_heat","dishwasher","fireplace","laundry_room","pets_allowed","single_story","garage_1_or_more","garage_2_or_more","modern_kitchen","open_kitchen","vaulted_ceiling","corner_lot","rental_property"],"when_indexed":"2022-08-23T14:18:03.073Z","home_photos":{"collection":[{"description":null,"href":"https://ap.rdcpix.com/2b8dbe746a28c11785bb66204eb6a1f5l-m4205770613s.jpg","type":null,"title":null,"tags":null},{"description":null,"href":"https://ap.rdcpix.com/2b8dbe746a28c11785bb66204eb6a1f5l-m1141089924s.jpg","type":null,"title":null,"tags":null},{"description":null,"href":"https://ap.rdcpix.com/2b8dbe746a28c11785bb66204eb6a1f5l-m3706770928s.jpg","type":null,"title":null,"tags":null}],"count":3}},{"permalink":"4311-Bonita-Rd_Holiday_FL_34691_M56170-71157","lead_attributes":{"show_contact_an_agent":true},"branding":[{"type":"Office","photo":null,"name":"Charles Rutenberg Realty"}],"price_reduced_date":null,"price_reduced_amount":null,"matterport":false,"virtual_tours":null,"advertisers":[{"email":"Nehad.Alhassan@gmail.com","fulfillment_id":"3013158","href":"http://marshmallowexperiment.com","mls_set":"A-ORFL-260043004","name":"Nehad Alhassan","nrds_id":"260043004","office":{"email":"john@gocrr.com","fulfillment_id":"1855564","mls_set":"O-ORFL-260000779","href":null,"name":"Charles Rutenberg Realty","phones":[{"ext":null,"number":"8665806402","primary":false,"trackable":null,"type":"Office"}]},"phones":[{"ext":null,"number":"7277551321","primary":false,"trackable":null,"type":"Mobile"}]}],"description":{"baths":1,"baths_full":1,"baths_full_calc":1,"baths_half":null,"baths_3qtr":null,"baths_1qtr":null,"beds":3,"garage":null,"lot_sqft":5246,"name":null,"sqft":1340,"sub_type":null,"type":"single_family","year_built":1963,"baths_min":null,"baths_max":null,"beds_max":null,"beds_min":null,"garage_min":null,"garage_max":null,"sqft_max":null,"sqft_min":null},"flags":{"is_pending":null,"is_deal_available":null,"is_for_rent":true,"is_garage_present":null,"is_senior_community":null,"is_new_listing":false},"href":"https://www.realtor.com/realestateandhomes-detail/4311-Bonita-Rd_Holiday_FL_34691_M56170-71157","last_price_change_amount":null,"last_price_change_date":null,"last_update_date":"2022-08-14T18:15:40Z","list_date":"2022-08-10T19:10:59Z","list_price":1550,"list_price_min":null,"list_price_max":null,"listing_id":"2946597660","location":{"address":{"city":"Holiday","coordinate":{"lat":28.188025,"lon":-82.742766},"country":"USA","line":"4311 Bonita Rd","postal_code":"34691","state":"Florida","state_code":"FL","street_direction":null,"street_name":"Bonita","street_number":"4311","street_post_direction":null,"street_suffix":"Rd","unit":null},"county":{"fips_code":"12101","name":"Pasco","state_code":"FL"},"search_areas":[{"city":"holiday","state_code":"fl"}]},"photo_count":35,"photos":[{"description":null,"href":"https://ap.rdcpix.com/1aa142890cebe979fa3aece2e45ec50al-m2435005461s.jpg","type":null,"title":null,"tags":null},{"description":null,"href":"https://ap.rdcpix.com/1aa142890cebe979fa3aece2e45ec50al-m3410635469s.jpg","type":null,"title":null,"tags":null},{"description":null,"href":"https://ap.rdcpix.com/1aa142890cebe979fa3aece2e45ec50al-m274341815s.jpg","type":null,"title":null,"tags":null}],"pet_policy":null,"primary_photo":{"description":null,"href":"https://ap.rdcpix.com/1aa142890cebe979fa3aece2e45ec50al-m2435005461s.jpg","type":null},"open_houses":null,"other_listings":{"rdc":[{"listing_id":"2946597660","status":"for_rent","primary":true},{"listing_id":"2945323214","status":"off_market","primary":null},{"listing_id":"2944207098","status":"off_market","primary":null},{"listing_id":"2943390870","status":"off_market","primary":null},{"listing_id":"650237866","status":"off_market","primary":null},{"listing_id":"646899118","status":"off_market","primary":null},{"listing_id":"622827514","status":"off_market","primary":null},{"listing_id":"607716798","status":"sold","primary":null},{"listing_id":"589414022","status":"sold","primary":null}]},"products":{"product_attributes":{"lead_phone_number.office":"(866) 580-6402","lead_phone_number.office.mapped_number":"(866) 580-6402","mlsRanks":[{"mls":"ORFL","rank":1}]},"products":["core.agent","core.broker"]},"property_history":null,"property_id":"5617071157","source":{"agents":[{"agent_id":"260043004","agent_name":"Nehad Alhassan"}],"id":"ORFL","listing_id":"U8173050","community_id":null,"name":"StellarMLS","type":"mls"},"status":"for_rent","suppression_flags":null,"tags":["central_air","central_heat","single_story","updated_kitchen","big_yard","fenced_yard","corner_lot","big_lot","beach","shopping"],"when_indexed":"2022-08-23T05:46:29.786Z","home_photos":{"collection":[{"description":null,"href":"https://ap.rdcpix.com/1aa142890cebe979fa3aece2e45ec50al-m2435005461s.jpg","type":null,"title":null,"tags":null},{"description":null,"href":"https://ap.rdcpix.com/1aa142890cebe979fa3aece2e45ec50al-m3410635469s.jpg","type":null,"title":null,"tags":null},{"description":null,"href":"https://ap.rdcpix.com/1aa142890cebe979fa3aece2e45ec50al-m274341815s.jpg","type":null,"title":null,"tags":null}],"count":3}},{"permalink":"6809-Crossbow-Ln_New-Port-Richey_FL_34653_M55215-44025","lead_attributes":{"show_contact_an_agent":true},"branding":[{"type":"Office","photo":null,"name":null}],"price_reduced_date":null,"price_reduced_amount":null,"matterport":false,"virtual_tours":null,"advertisers":[{"email":null,"fulfillment_id":null,"href":null,"mls_set":null,"name":null,"nrds_id":null,"office":{"email":"listings+60482018@reply.avail.co","fulfillment_id":null,"mls_set":null,"href":null,"name":null,"phones":null},"phones":null}],"description":{"baths":2,"baths_full":2,"baths_full_calc":2,"baths_half":null,"baths_3qtr":null,"baths_1qtr":null,"beds":3,"garage":null,"lot_sqft":null,"name":null,"sqft":1400,"sub_type":null,"type":"single_family","year_built":null,"baths_min":null,"baths_max":null,"beds_max":null,"beds_min":null,"garage_min":null,"garage_max":null,"sqft_max":null,"sqft_min":null},"flags":{"is_pending":null,"is_deal_available":null,"is_for_rent":true,"is_garage_present":true,"is_senior_community":null,"is_new_listing":true},"href":"https://www.realtor.com/realestateandhomes-detail/6809-Crossbow-Ln_New-Port-Richey_FL_34653_M55215-44025","last_price_change_amount":null,"last_price_change_date":null,"last_update_date":"2022-08-22T15:03:52Z","list_date":"2022-08-22T15:03:52Z","list_price":1950,"list_price_min":null,"list_price_max":null,"listing_id":"2946940289","location":{"address":{"city":"New Port Richey","coordinate":{"lat":28.256442,"lon":-82.702549},"country":"USA","line":"6809 Crossbow Ln","postal_code":"34653","state":"Florida","state_code":"FL","street_direction":null,"street_name":"Crossbow","street_number":"6809","street_post_direction":null,"street_suffix":"Ln","unit":null},"county":{"fips_code":"12101","name":"Pasco","state_code":"FL"},"search_areas":[{"city":"new port richey","state_code":"fl"}]},"photo_count":14,"photos":[{"description":null,"href":"https://ap.rdcpix.com/120d2ae442160be585e6c81598cfdfbal-m4244818189s.jpg","type":null,"title":null,"tags":null},{"description":null,"href":"https://ap.rdcpix.com/120d2ae442160be585e6c81598cfdfbal-m1324558202s.jpg","type":null,"title":null,"tags":null},{"description":null,"href":"https://ap.rdcpix.com/120d2ae442160be585e6c81598cfdfbal-m1207519833s.jpg","type":null,"title":null,"tags":null}],"pet_policy":{"cats":true,"dogs":true,"text":null},"primary_photo":{"description":null,"href":"https://ap.rdcpix.com/120d2ae442160be585e6c81598cfdfbal-m4244818189s.jpg","type":null},"open_houses":null,"other_listings":{"rdc":[{"listing_id":"2946940289","status":"for_rent","primary":true},{"listing_id":"2946023936","status":"off_market","primary":null}]},"products":null,"property_history":null,"property_id":"5521544025","source":{"agents":null,"id":"AVAL","listing_id":"60482018","community_id":null,"name":"Avail","type":"unit_rental"},"status":"for_rent","suppression_flags":null,"tags":["pets_allowed","washer_dryer","garage_1_or_more","updated_kitchen","fenced_yard","high_ceiling","vaulted_ceiling","floor_plan","rental_property"],"when_indexed":"2022-08-22T15:23:10.411Z","home_photos":{"collection":[{"description":null,"href":"https://ap.rdcpix.com/120d2ae442160be585e6c81598cfdfbal-m4244818189s.jpg","type":null,"title":null,"tags":null},{"description":null,"href":"https://ap.rdcpix.com/120d2ae442160be585e6c81598cfdfbal-m1324558202s.jpg","type":null,"title":null,"tags":null},{"description":null,"href":"https://ap.rdcpix.com/120d2ae442160be585e6c81598cfdfbal-m1207519833s.jpg","type":null,"title":null,"tags":null}],"count":3}}],"top_real_estate_markets":{"title":"Apartments for Rent in Florida","top_markets":[{"url":"https://www.realtor.com/apartments/Miami_FL","city":"Miami Apartments for Rent","text":"Miami Apartments for Rent"},{"url":"https://www.realtor.com/apartments/Jacksonville_FL","city":"Jacksonville Apartments for Rent","text":"Jacksonville Apartments for Rent"},{"url":"https://www.realtor.com/apartments/Orlando_FL","city":"Orlando Apartments for Rent","text":"Orlando Apartments for Rent"},{"url":"https://www.realtor.com/apartments/Tampa_FL","city":"Tampa Apartments for Rent","text":"Tampa Apartments for Rent"},{"url":"https://www.realtor.com/apartments/Naples_FL","city":"Naples Apartments for Rent","text":"Naples Apartments for Rent"},{"url":"https://www.realtor.com/apartments/Miami-Beach_FL","city":"Miami Beach Apartments for Rent","text":"Miami Beach Apartments for Rent"},{"url":"https://www.realtor.com/apartments/Fort-Lauderdale_FL","city":"Fort Lauderdale Apartments for Rent","text":"Fort Lauderdale Apartments for Rent"},{"url":"https://www.realtor.com/apartments/West-Palm-Beach_FL","city":"West Palm Beach Apartments for Rent","text":"West Palm Beach Apartments for Rent"},{"url":"https://www.realtor.com/apartments/Boca-Raton_FL","city":"Boca Raton Apartments for Rent","text":"Boca Raton Apartments for Rent"},{"url":"https://www.realtor.com/apartments/Hollywood_FL","city":"Hollywood Apartments for Rent","text":"Hollywood Apartments for Rent"},{"url":"https://www.realtor.com/apartments/Sarasota_FL","city":"Sarasota Apartments for Rent","text":"Sarasota Apartments for Rent"},{"url":"https://www.realtor.com/apartments/Delray-Beach_FL","city":"Delray Beach Apartments for Rent","text":"Delray Beach Apartments for Rent"},{"url":"https://www.realtor.com/apartments/Doral_FL","city":"Doral Apartments for Rent","text":"Doral Apartments for Rent"},{"url":"https://www.realtor.com/apartments/Sunny-Isles-Beach_FL","city":"Sunny Isles Beach Apartments for Rent","text":"Sunny Isles Beach Apartments for Rent"},{"url":"https://www.realtor.com/apartments/Fort-Myers_FL","city":"Fort Myers Apartments for Rent","text":"Fort Myers Apartments for Rent"},{"url":"https://www.realtor.com/apartments/Pompano-Beach_FL","city":"Pompano Beach Apartments for Rent","text":"Pompano Beach Apartments for Rent"},{"url":"https://www.realtor.com/apartments/Clearwater_FL","city":"Clearwater Apartments for Rent","text":"Clearwater Apartments for Rent"},{"url":"https://www.realtor.com/apartments/Cape-Coral_FL","city":"Cape Coral Apartments for Rent","text":"Cape Coral Apartments for Rent"},{"url":"https://www.realtor.com/apartments/Kissimmee_FL","city":"Kissimmee Apartments for Rent","text":"Kissimmee Apartments for Rent"},{"url":"https://www.realtor.com/apartments/Pembroke-Pines_FL","city":"Pembroke Pines Apartments for Rent","text":"Pembroke Pines Apartments for Rent"},{"url":"https://www.realtor.com/apartments/Bradenton_FL","city":"Bradenton Apartments for Rent","text":"Bradenton Apartments for Rent"},{"url":"https://www.realtor.com/apartments/Plantation_Broward-County_FL","city":"Plantation Apartments for Rent","text":"Plantation Apartments for Rent"},{"url":"https://www.realtor.com/apartments/Hallandale-Beach_FL","city":"Hallandale Beach Apartments for Rent","text":"Hallandale Beach Apartments for Rent"},{"url":"https://www.realtor.com/apartments/Boynton-Beach_FL","city":"Boynton Beach Apartments for Rent","text":"Boynton Beach Apartments for Rent"},{"url":"https://www.realtor.com/apartments/Aventura_FL","city":"Aventura Apartments for Rent","text":"Aventura Apartments for Rent"},{"url":"https://www.realtor.com/apartments/Coral-Springs_FL","city":"Coral Springs Apartments for Rent","text":"Coral Springs Apartments for Rent"},{"url":"https://www.realtor.com/apartments/Vero-Beach_FL","city":"Vero Beach Apartments for Rent","text":"Vero Beach Apartments for Rent"},{"url":"https://www.realtor.com/apartments/Wellington_FL","city":"Wellington Apartments for Rent","text":"Wellington Apartments for Rent"}]},"popular_searches":null,"property_types":null},"consumer_search":{"costar_counts":{"costar_total":0,"non_costar_total":9},"count":9,"total":13,"aggregation":null,"results":[{"permalink":"70-James-Ct_Oldsmar_FL_34677_M67976-39155","lead_attributes":{"show_contact_an_agent":true},"branding":[{"type":"Office","photo":null,"name":null}],"price_reduced_date":null,"price_reduced_amount":null,"matterport":false,"virtual_tours":null,"advertisers":[{"email":null,"fulfillment_id":null,"href":null,"mls_set":null,"name":null,"nrds_id":null,"office":{"email":"rent+425864@tenantturnermail.com","fulfillment_id":null,"mls_set":null,"href":null,"name":null,"phones":[{"ext":null,"number":"8337746323","primary":false,"trackable":null,"type":"primary"}]},"phones":null}],"description":{"baths":2,"baths_full":2,"baths_full_calc":2,"baths_half":null,"baths_3qtr":null,"baths_1qtr":null,"beds":3,"garage":null,"lot_sqft":null,"name":null,"sqft":1445,"sub_type":null,"type":"single_family","year_built":null,"baths_min":null,"baths_max":null,"beds_max":null,"beds_min":null,"garage_min":null,"garage_max":null,"sqft_max":null,"sqft_min":null},"flags":{"is_pending":null,"is_deal_available":null,"is_for_rent":true,"is_garage_present":null,"is_senior_community":null,"is_new_listing":null},"href":"https://www.realtor.com/realestateandhomes-detail/70-James-Ct_Oldsmar_FL_34677_M67976-39155","last_price_change_amount":null,"last_price_change_date":null,"last_update_date":"2022-07-16T23:03:06Z","list_date":null,"list_price":2150,"list_price_min":null,"list_price_max":null,"listing_id":"2945439623","location":{"address":{"city":"Oldsmar","coordinate":{"lat":28.074085,"lon":-82.701507},"country":"USA","line":"70 James Ct","postal_code":"34677","state":"Florida","state_code":"FL","street_direction":null,"street_name":"James","street_number":"70","street_post_direction":null,"street_suffix":"Ct","unit":null},"county":{"fips_code":"12103","name":"Pinellas","state_code":"FL"},"search_areas":[{"city":"east lake","state_code":"fl"},{"city":"oldsmar","state_code":"fl"}]},"photo_count":10,"photos":[{"description":null,"href":"https://ap.rdcpix.com/6736bd0d7f3bb57ac5a2072429473068l-m2141201132s.jpg","type":null,"title":null,"tags":null},{"description":null,"href":"https://ap.rdcpix.com/6736bd0d7f3bb57ac5a2072429473068l-m2110344357s.jpg","type":null,"title":null,"tags":null},{"description":null,"href":"https://ap.rdcpix.com/6736bd0d7f3bb57ac5a2072429473068l-m3644578979s.jpg","type":null,"title":null,"tags":null}],"pet_policy":{"cats":true,"dogs":true,"text":null},"primary_photo":{"description":null,"href":"https://ap.rdcpix.com/6736bd0d7f3bb57ac5a2072429473068l-m2141201132s.jpg","type":null},"open_houses":null,"other_listings":{"rdc":[{"listing_id":"2945439623","status":"for_rent","primary":true},{"listing_id":"630146742","status":"off_market","primary":null},{"listing_id":"549721482","status":"off_market","primary":null},{"listing_id":"583614318","status":"off_market","primary":null},{"listing_id":"528451054","status":"off_market","primary":null},{"listing_id":"583591210","status":"off_market","primary":null},{"listing_id":"524900202","status":"sold","primary":null},{"listing_id":"583845194","status":"off_market","primary":null},{"listing_id":"516349774","status":"off_market","primary":null}]},"products":null,"property_history":null,"property_id":"6797639155","source":{"agents":null,"id":"TURN","listing_id":"425864","community_id":null,"name":"TenantTurner","type":"unit_rental"},"status":"for_rent","suppression_flags":{"has_suppress_list_date":true,"has_suppress_foreclosure":true},"tags":["pets_allowed","vaulted_ceiling"],"when_indexed":"2022-08-23T05:17:10.127Z","home_photos":{"collection":[{"description":null,"href":"https://ap.rdcpix.com/6736bd0d7f3bb57ac5a2072429473068l-m2141201132s.jpg","type":null,"title":null,"tags":null},{"description":null,"href":"https://ap.rdcpix.com/6736bd0d7f3bb57ac5a2072429473068l-m2110344357s.jpg","type":null,"title":null,"tags":null},{"description":null,"href":"https://ap.rdcpix.com/6736bd0d7f3bb57ac5a2072429473068l-m3644578979s.jpg","type":null,"title":null,"tags":null}],"count":3}},{"permalink":"6425-41st-Ave-N_St-Petersburg_FL_33709_M68106-48730","lead_attributes":{"show_contact_an_agent":true},"branding":[{"type":"Office","photo":null,"name":null}],"price_reduced_date":null,"price_reduced_amount":null,"matterport":false,"virtual_tours":null,"advertisers":[{"email":null,"fulfillment_id":null,"href":null,"mls_set":null,"name":null,"nrds_id":null,"office":{"email":"listings+60487024@reply.avail.co","fulfillment_id":null,"mls_set":null,"href":null,"name":null,"phones":[{"ext":null,"number":"7274361598","primary":false,"trackable":null,"type":"primary"}]},"phones":null}],"description":{"baths":2,"baths_full":2,"baths_full_calc":2,"baths_half":null,"baths_3qtr":null,"baths_1qtr":null,"beds":2,"garage":null,"lot_sqft":null,"name":null,"sqft":1297,"sub_type":null,"type":"single_family","year_built":null,"baths_min":null,"baths_max":null,"beds_max":null,"beds_min":null,"garage_min":null,"garage_max":null,"sqft_max":null,"sqft_min":null},"flags":{"is_pending":null,"is_deal_available":null,"is_for_rent":true,"is_garage_present":true,"is_senior_community":null,"is_new_listing":true},"href":"https://www.realtor.com/realestateandhomes-detail/6425-41st-Ave-N_St-Petersburg_FL_33709_M68106-48730","last_price_change_amount":null,"last_price_change_date":null,"last_update_date":"2022-08-22T15:03:52Z","list_date":"2022-08-21T16:03:31Z","list_price":2050,"list_price_min":null,"list_price_max":null,"listing_id":"2946927519","location":{"address":{"city":"Saint Petersburg","coordinate":{"lat":27.809367,"lon":-82.725194},"country":"USA","line":"6425 41st Ave N","postal_code":"33709","state":"Florida","state_code":"FL","street_direction":null,"street_name":"41st","street_number":"6425","street_post_direction":"N","street_suffix":"Ave","unit":null},"county":{"fips_code":"12103","name":"Pinellas","state_code":"FL"},"search_areas":[{"city":"saint petersburg","state_code":"fl"},{"city":"st petersburg","state_code":"fl"},{"city":"st. petersburg","state_code":"fl"},{"city":"west lealman","state_code":"fl"}]},"photo_count":16,"photos":[{"description":null,"href":"https://ap.rdcpix.com/c4e3ad316bc8522e5e59713235dac561l-m3722514045s.jpg","type":null,"title":null,"tags":null},{"description":null,"href":"https://ap.rdcpix.com/c4e3ad316bc8522e5e59713235dac561l-m3331323710s.jpg","type":null,"title":null,"tags":null},{"description":null,"href":"https://ap.rdcpix.com/c4e3ad316bc8522e5e59713235dac561l-m2782264625s.jpg","type":null,"title":null,"tags":null}],"pet_policy":{"cats":true,"dogs":true,"text":null},"primary_photo":{"description":null,"href":"https://ap.rdcpix.com/c4e3ad316bc8522e5e59713235dac561l-m3722514045s.jpg","type":null},"open_houses":null,"other_listings":{"rdc":[{"listing_id":"2946874656","status":"for_sale","primary":true},{"listing_id":"2946927519","status":"for_rent","primary":true}]},"products":null,"property_history":null,"property_id":"6810648730","source":{"agents":null,"id":"AVAL","listing_id":"60487024","community_id":null,"name":"Avail","type":"unit_rental"},"status":"for_rent","suppression_flags":null,"tags":["dishwasher","pets_allowed","washer_dryer","garage_1_or_more","updated_kitchen","rental_property"],"when_indexed":"2022-08-23T05:17:00.075Z","home_photos":{"collection":[{"description":null,"href":"https://ap.rdcpix.com/c4e3ad316bc8522e5e59713235dac561l-m3722514045s.jpg","type":null,"title":null,"tags":null},{"description":null,"href":"https://ap.rdcpix.com/c4e3ad316bc8522e5e59713235dac561l-m3331323710s.jpg","type":null,"title":null,"tags":null},{"description":null,"href":"https://ap.rdcpix.com/c4e3ad316bc8522e5e59713235dac561l-m2782264625s.jpg","type":null,"title":null,"tags":null}],"count":3}},{"permalink":"720-Newton-Ave-S_St-Petersburg_FL_33701_M54861-08700","lead_attributes":{"show_contact_an_agent":true},"branding":[{"type":"Office","photo":null,"name":"Vintage Real Estate Services"}],"price_reduced_date":null,"price_reduced_amount":null,"matterport":false,"virtual_tours":[{"href":"https://www.propertypanorama.com/instaview/stellar/T3395156"}],"advertisers":[{"email":"john@hatcherian.com","fulfillment_id":"2843858","href":null,"mls_set":"A-ORFL-261545377","name":"John Hatcherian","nrds_id":null,"office":{"email":"admin@vintagerealestate.net","fulfillment_id":"1519711","mls_set":"O-ORFL-771072","href":"WWW.VINATAGEREALESTATE.NET","name":"Vintage Real Estate Services","phones":[{"ext":null,"number":"8136840001","primary":false,"trackable":null,"type":"Office"}]},"phones":[{"ext":null,"number":"7279197284","primary":false,"trackable":null,"type":"Office"},{"ext":null,"number":"7279197284","primary":false,"trackable":null,"type":"Mobile"}]}],"description":{"baths":2,"baths_full":2,"baths_full_calc":2,"baths_half":null,"baths_3qtr":null,"baths_1qtr":null,"beds":4,"garage":1,"lot_sqft":5018,"name":null,"sqft":1320,"sub_type":null,"type":"single_family","year_built":2006,"baths_min":null,"baths_max":null,"beds_max":null,"beds_min":null,"garage_min":null,"garage_max":null,"sqft_max":null,"sqft_min":null},"flags":{"is_pending":null,"is_deal_available":null,"is_for_rent":true,"is_garage_present":true,"is_senior_community":null,"is_new_listing":false},"href":"https://www.realtor.com/realestateandhomes-detail/720-Newton-Ave-S_St-Petersburg_FL_33701_M54861-08700","last_price_change_amount":null,"last_price_change_date":null,"last_update_date":"2022-08-11T02:56:38Z","list_date":"2022-08-11T01:05:33Z","list_price":2100,"list_price_min":null,"list_price_max":null,"listing_id":"2946612218","location":{"address":{"city":"Saint Petersburg","coordinate":{"lat":27.756181,"lon":-82.642969},"country":"USA","line":"720 Newton Ave S","postal_code":"33701","state":"Florida","state_code":"FL","street_direction":null,"street_name":"Newton","street_number":"720","street_post_direction":"S","street_suffix":"Ave","unit":null},"county":{"fips_code":"12103","name":"Pinellas","state_code":"FL"},"search_areas":[{"city":"saint petersburg","state_code":"fl"},{"city":"st petersburg","state_code":"fl"},{"city":"st. petersburg","state_code":"fl"}]},"photo_count":16,"photos":[{"description":null,"href":"https://ap.rdcpix.com/2ae84b0a4858a6e994ea1338c7c8d6b8l-m1243389498s.jpg","type":null,"title":null,"tags":null},{"description":null,"href":"https://ap.rdcpix.com/2ae84b0a4858a6e994ea1338c7c8d6b8l-m1569836018s.jpg","type":null,"title":null,"tags":null},{"description":null,"href":"https://ap.rdcpix.com/2ae84b0a4858a6e994ea1338c7c8d6b8l-m2790787817s.jpg","type":null,"title":null,"tags":null}],"pet_policy":null,"primary_photo":{"description":null,"href":"https://ap.rdcpix.com/2ae84b0a4858a6e994ea1338c7c8d6b8l-m1243389498s.jpg","type":null},"open_houses":null,"other_listings":{"rdc":[{"listing_id":"2946612218","status":"for_rent","primary":true},{"listing_id":"2929959054","status":"off_market","primary":null},{"listing_id":"2930001229","status":"off_market","primary":null},{"listing_id":"620951514","status":"off_market","primary":null},{"listing_id":"613624870","status":"off_market","primary":null},{"listing_id":"580950246","status":"off_market","primary":null},{"listing_id":"579247282","status":"off_market","primary":null},{"listing_id":"559790562","status":"off_market","primary":null},{"listing_id":"517893730","status":"off_market","primary":null},{"listing_id":"523654790","status":"other","primary":null},{"listing_id":"585911846","status":"off_market","primary":null},{"listing_id":"502207734","status":"off_market","primary":null}]},"products":{"product_attributes":null,"products":["core.agent","core.broker"]},"property_history":null,"property_id":"5486108700","source":{"agents":[{"agent_id":"261545377","agent_name":"John Hatcherian"}],"id":"ORFL","listing_id":"T3395156","community_id":null,"name":"StellarMLS","type":"mls"},"status":"for_rent","suppression_flags":null,"tags":["central_air","central_heat","dining_room","dishwasher","laundry_room","two_or_more_stories","garage_1_or_more","fenced_yard","master_bedroom"],"when_indexed":"2022-08-23T06:16:30.322Z","home_photos":{"collection":[{"description":null,"href":"https://ap.rdcpix.com/2ae84b0a4858a6e994ea1338c7c8d6b8l-m1243389498s.jpg","type":null,"title":null,"tags":null},{"description":null,"href":"https://ap.rdcpix.com/2ae84b0a4858a6e994ea1338c7c8d6b8l-m1569836018s.jpg","type":null,"title":null,"tags":null},{"description":null,"href":"https://ap.rdcpix.com/2ae84b0a4858a6e994ea1338c7c8d6b8l-m2790787817s.jpg","type":null,"title":null,"tags":null}],"count":3}},{"permalink":"3931-Grove-St-S_St-Petersburg_FL_33705_M55621-91019","lead_attributes":{"show_contact_an_agent":true},"branding":[{"type":"Office","photo":null,"name":"RENT SOLUTIONS"}],"price_reduced_date":null,"price_reduced_amount":null,"matterport":false,"virtual_tours":[{"href":"https://www.propertypanorama.com/instaview/stellar/T3396122"}],"advertisers":[{"email":"michael.obrien1@cbrealty.com","fulfillment_id":"4360460","href":"http://mycondotampabay.cbintouch.com/","mls_set":"A-ORFL-727009217","name":"Michael O'Brien","nrds_id":null,"office":{"email":"steveo@rentsolutions.com","fulfillment_id":"2887668","mls_set":"O-ORFL-779809","href":null,"name":"RENT SOLUTIONS","phones":[{"ext":null,"number":"8135795597","primary":false,"trackable":null,"type":"Office"}]},"phones":[{"ext":null,"number":"2677515888","primary":false,"trackable":null,"type":"Office"}]}],"description":{"baths":1,"baths_full":1,"baths_full_calc":1,"baths_half":null,"baths_3qtr":null,"baths_1qtr":null,"beds":2,"garage":null,"lot_sqft":5955,"name":null,"sqft":1300,"sub_type":null,"type":"single_family","year_built":1950,"baths_min":null,"baths_max":null,"beds_max":null,"beds_min":null,"garage_min":null,"garage_max":null,"sqft_max":null,"sqft_min":null},"flags":{"is_pending":null,"is_deal_available":null,"is_for_rent":true,"is_garage_present":null,"is_senior_community":null,"is_new_listing":false},"href":"https://www.realtor.com/realestateandhomes-detail/3931-Grove-St-S_St-Petersburg_FL_33705_M55621-91019","last_price_change_amount":null,"last_price_change_date":null,"last_update_date":"2022-08-15T21:16:33Z","list_date":"2022-08-15T16:41:23Z","list_price":1950,"list_price_min":null,"list_price_max":null,"listing_id":"2946732626","location":{"address":{"city":"Saint Petersburg","coordinate":{"lat":27.732677,"lon":-82.643702},"country":"USA","line":"3931 Grove St S","postal_code":"33705","state":"Florida","state_code":"FL","street_direction":null,"street_name":"Grove","street_number":"3931","street_post_direction":"S","street_suffix":"St","unit":null},"county":{"fips_code":"12103","name":"Pinellas","state_code":"FL"},"search_areas":[{"city":"saint petersburg","state_code":"fl"},{"city":"st petersburg","state_code":"fl"},{"city":"st. petersburg","state_code":"fl"}]},"photo_count":20,"photos":[{"description":null,"href":"https://ap.rdcpix.com/77069f1dcec2d8a6631c42d0db625f9el-m3992613812s.jpg","type":null,"title":null,"tags":null},{"description":null,"href":"https://ap.rdcpix.com/77069f1dcec2d8a6631c42d0db625f9el-m3195155027s.jpg","type":null,"title":null,"tags":null},{"description":null,"href":"https://ap.rdcpix.com/77069f1dcec2d8a6631c42d0db625f9el-m1089701614s.jpg","type":null,"title":null,"tags":null}],"pet_policy":{"cats":true,"dogs":true,"text":null},"primary_photo":{"description":null,"href":"https://ap.rdcpix.com/77069f1dcec2d8a6631c42d0db625f9el-m3992613812s.jpg","type":null},"open_houses":null,"other_listings":{"rdc":[{"listing_id":"2946732626","status":"for_rent","primary":true},{"listing_id":"622238142","status":"sold","primary":null},{"listing_id":"579370510","status":"sold","primary":null},{"listing_id":"563122974","status":"off_market","primary":null}]},"products":{"product_attributes":null,"products":["core.agent","core.broker"]},"property_history":null,"property_id":"5562191019","source":{"agents":[{"agent_id":"727009217","agent_name":"Michael O Brien"}],"id":"ORFL","listing_id":"T3396122","community_id":null,"name":"StellarMLS","type":"mls"},"status":"for_rent","suppression_flags":null,"tags":["central_air","central_heat","dishwasher","pets_allowed","single_story","updated_kitchen","big_yard","fenced_yard","rental_property"],"when_indexed":"2022-08-23T05:44:30.276Z","home_photos":{"collection":[{"description":null,"href":"https://ap.rdcpix.com/77069f1dcec2d8a6631c42d0db625f9el-m3992613812s.jpg","type":null,"title":null,"tags":null},{"description":null,"href":"https://ap.rdcpix.com/77069f1dcec2d8a6631c42d0db625f9el-m3195155027s.jpg","type":null,"title":null,"tags":null},{"description":null,"href":"https://ap.rdcpix.com/77069f1dcec2d8a6631c42d0db625f9el-m1089701614s.jpg","type":null,"title":null,"tags":null}],"count":3}},{"permalink":"1138-Jambalana-Dr_Holiday_FL_34691_M67665-39153","lead_attributes":{"show_contact_an_agent":true},"branding":[{"type":"Office","photo":null,"name":null}],"price_reduced_date":null,"price_reduced_amount":null,"matterport":false,"virtual_tours":[{"href":"https://www.propertypanorama.com/instaview/stellar/U8161927"}],"advertisers":[{"email":null,"fulfillment_id":null,"href":null,"mls_set":null,"name":null,"nrds_id":null,"office":{"email":"rentalservice@move.com","fulfillment_id":null,"mls_set":null,"href":null,"name":null,"phones":[{"ext":null,"number":"8333676963","primary":false,"trackable":null,"type":"primary"}]},"phones":null}],"description":{"baths":2,"baths_full":2,"baths_full_calc":2,"baths_half":null,"baths_3qtr":null,"baths_1qtr":null,"beds":2,"garage":null,"lot_sqft":null,"name":null,"sqft":1510,"sub_type":null,"type":"single_family","year_built":1986,"baths_min":null,"baths_max":null,"beds_max":null,"beds_min":null,"garage_min":null,"garage_max":null,"sqft_max":null,"sqft_min":null},"flags":{"is_pending":null,"is_deal_available":null,"is_for_rent":true,"is_garage_present":true,"is_senior_community":null,"is_new_listing":null},"href":"https://www.realtor.com/realestateandhomes-detail/1138-Jambalana-Dr_Holiday_FL_34691_M67665-39153","last_price_change_amount":null,"last_price_change_date":null,"last_update_date":"2022-08-23T01:10:56Z","list_date":null,"list_price":2095,"list_price_min":null,"list_price_max":null,"listing_id":"2946516558","location":{"address":{"city":"Holiday","coordinate":{"lat":28.175857,"lon":-82.77008},"country":"USA","line":"1138 Jambalana Dr","postal_code":"34691","state":"Florida","state_code":"FL","street_direction":null,"street_name":"Jambalana","street_number":"1138","street_post_direction":null,"street_suffix":"Dr","unit":null},"county":{"fips_code":"12101","name":"Pasco","state_code":"FL"},"search_areas":[{"city":"holiday","state_code":"fl"}]},"photo_count":33,"photos":[{"description":null,"href":"https://ap.rdcpix.com/a4aaf3e81b9033d564b611f4b966c102l-m3319241237s.jpg","type":null,"title":null,"tags":null},{"description":null,"href":"https://ap.rdcpix.com/a4aaf3e81b9033d564b611f4b966c102l-m3520876310s.jpg","type":null,"title":null,"tags":null},{"description":null,"href":"https://ap.rdcpix.com/a4aaf3e81b9033d564b611f4b966c102l-m3210956601s.jpg","type":null,"title":null,"tags":null}],"pet_policy":{"cats":true,"dogs":true,"text":null},"primary_photo":{"description":null,"href":"https://ap.rdcpix.com/a4aaf3e81b9033d564b611f4b966c102l-m3319241237s.jpg","type":null},"open_houses":null,"other_listings":{"rdc":[{"listing_id":"2946516558","status":"for_rent","primary":true},{"listing_id":"2942944293","status":"sold","primary":null}]},"products":null,"property_history":null,"property_id":"6766539153","source":{"agents":null,"id":"RXUN","listing_id":"7635647","community_id":null,"name":"RentlinxUnits","type":"unit_rental"},"status":"for_rent","suppression_flags":{"has_suppress_list_date":true,"has_suppress_foreclosure":true},"tags":["central_air","dishwasher","pets_allowed","recreation_facilities","garage_1_or_more","master_suite","rental_property"],"when_indexed":"2022-08-23T05:17:04.642Z","home_photos":{"collection":[{"description":null,"href":"https://ap.rdcpix.com/a4aaf3e81b9033d564b611f4b966c102l-m3319241237s.jpg","type":null,"title":null,"tags":null},{"description":null,"href":"https://ap.rdcpix.com/a4aaf3e81b9033d564b611f4b966c102l-m3520876310s.jpg","type":null,"title":null,"tags":null},{"description":null,"href":"https://ap.rdcpix.com/a4aaf3e81b9033d564b611f4b966c102l-m3210956601s.jpg","type":null,"title":null,"tags":null}],"count":3}},{"permalink":"5740-Bacardi-Ct_Holiday_FL_34690_M60645-60595","lead_attributes":{"show_contact_an_agent":true},"branding":[{"type":"Office","photo":null,"name":null}],"price_reduced_date":"2022-08-20T03:16:08.953Z","price_reduced_amount":54,"matterport":false,"virtual_tours":null,"advertisers":[{"email":null,"fulfillment_id":null,"href":null,"mls_set":null,"name":null,"nrds_id":null,"office":{"email":"leasing@invitationhomes.com","fulfillment_id":null,"mls_set":null,"href":null,"name":null,"phones":[{"ext":null,"number":"8889904684","primary":false,"trackable":null,"type":"primary"}]},"phones":null}],"description":{"baths":2,"baths_full":2,"baths_full_calc":2,"baths_half":null,"baths_3qtr":null,"baths_1qtr":null,"beds":3,"garage":null,"lot_sqft":null,"name":null,"sqft":1748,"sub_type":null,"type":"single_family","year_built":null,"baths_min":null,"baths_max":null,"beds_max":null,"beds_min":null,"garage_min":null,"garage_max":null,"sqft_max":null,"sqft_min":null},"flags":{"is_pending":null,"is_deal_available":null,"is_for_rent":true,"is_garage_present":null,"is_senior_community":null,"is_new_listing":null},"href":"https://www.realtor.com/realestateandhomes-detail/5740-Bacardi-Ct_Holiday_FL_34690_M60645-60595","last_price_change_amount":-54,"last_price_change_date":"2022-08-20T03:16:08.953Z","last_update_date":"2022-08-20T03:16:08Z","list_date":null,"list_price":2045,"list_price_min":null,"list_price_max":null,"listing_id":"2945423813","location":{"address":{"city":"Holiday","coordinate":{"lat":28.184348,"lon":-82.719149},"country":"USA","line":"5740 Bacardi Ct","postal_code":"34690","state":"Florida","state_code":"FL","street_direction":null,"street_name":"Bacardi","street_number":"5740","street_post_direction":null,"street_suffix":"Ct","unit":null},"county":{"fips_code":"12101","name":"Pasco","state_code":"FL"},"search_areas":[{"city":"holiday","state_code":"fl"}]},"photo_count":15,"photos":[{"description":null,"href":"https://ap.rdcpix.com/36ddd2f92edce94fcb707299934ac0e6l-m4039978494s.jpg","type":null,"title":null,"tags":null},{"description":null,"href":"https://ap.rdcpix.com/36ddd2f92edce94fcb707299934ac0e6l-m682926922s.jpg","type":null,"title":null,"tags":null},{"description":null,"href":"https://ap.rdcpix.com/36ddd2f92edce94fcb707299934ac0e6l-m2144534328s.jpg","type":null,"title":null,"tags":null}],"pet_policy":{"cats":true,"dogs":true,"text":null},"primary_photo":{"description":null,"href":"https://ap.rdcpix.com/36ddd2f92edce94fcb707299934ac0e6l-m4039978494s.jpg","type":null},"open_houses":null,"other_listings":{"rdc":[{"listing_id":"2945423813","status":"for_rent","primary":true},{"listing_id":"2916611350","status":"off_market","primary":null},{"listing_id":"611501470","status":"off_market","primary":null},{"listing_id":"592705954","status":"off_market","primary":null},{"listing_id":"624898070","status":"off_market","primary":null},{"listing_id":"637479566","status":"off_market","primary":null},{"listing_id":"611968978","status":"off_market","primary":null},{"listing_id":"593083606","status":"off_market","primary":null},{"listing_id":"593302426","status":"off_market","primary":null},{"listing_id":"590016082","status":"sold","primary":null}]},"products":null,"property_history":null,"property_id":"6064560595","source":{"agents":null,"id":"INVH","listing_id":"e20bace6-6b02-494c-be29-891716d0e89f","community_id":null,"name":"InvitationHomes","type":"unit_rental"},"status":"for_rent","suppression_flags":{"has_suppress_list_date":true,"has_suppress_foreclosure":true},"tags":["pets_allowed","community_swimming_pool","fenced_yard","floor_plan","rental_property","smart_homes","hoa"],"when_indexed":"2022-08-23T05:30:39.932Z","home_photos":{"collection":[{"description":null,"href":"https://ap.rdcpix.com/36ddd2f92edce94fcb707299934ac0e6l-m4039978494s.jpg","type":null,"title":null,"tags":null},{"description":null,"href":"https://ap.rdcpix.com/36ddd2f92edce94fcb707299934ac0e6l-m682926922s.jpg","type":null,"title":null,"tags":null},{"description":null,"href":"https://ap.rdcpix.com/36ddd2f92edce94fcb707299934ac0e6l-m2144534328s.jpg","type":null,"title":null,"tags":null}],"count":3}},{"permalink":"8247-Tahr-Ave_New-Port-Richey_FL_34653_M69650-03042","lead_attributes":{"show_contact_an_agent":true},"branding":[{"type":"Office","photo":null,"name":null}],"price_reduced_date":"2022-08-19T01:38:46.671Z","price_reduced_amount":40,"matterport":false,"virtual_tours":null,"advertisers":[{"email":null,"fulfillment_id":null,"href":null,"mls_set":null,"name":null,"nrds_id":null,"office":{"email":"leadtmp@rentprogress.com","fulfillment_id":null,"mls_set":null,"href":null,"name":null,"phones":[{"ext":null,"number":"8137735085","primary":false,"trackable":null,"type":"primary"}]},"phones":null}],"description":{"baths":2,"baths_full":2,"baths_full_calc":2,"baths_half":null,"baths_3qtr":null,"baths_1qtr":null,"beds":3,"garage":null,"lot_sqft":null,"name":null,"sqft":1596,"sub_type":null,"type":"single_family","year_built":null,"baths_min":null,"baths_max":null,"beds_max":null,"beds_min":null,"garage_min":null,"garage_max":null,"sqft_max":null,"sqft_min":null},"flags":{"is_pending":null,"is_deal_available":null,"is_for_rent":true,"is_garage_present":null,"is_senior_community":null,"is_new_listing":null},"href":"https://www.realtor.com/realestateandhomes-detail/8247-Tahr-Ave_New-Port-Richey_FL_34653_M69650-03042","last_price_change_amount":-40,"last_price_change_date":"2022-08-19T01:38:46.671Z","last_update_date":"2022-08-18T22:37:03Z","list_date":null,"list_price":2085,"list_price_min":null,"list_price_max":null,"listing_id":"2941304388","location":{"address":{"city":"New Port Richey","coordinate":{"lat":28.225943,"lon":-82.677692},"country":"USA","line":"8247 Tahr Ave","postal_code":"34653","state":"Florida","state_code":"FL","street_direction":null,"street_name":"Tahr","street_number":"8247","street_post_direction":null,"street_suffix":"Ave","unit":null},"county":{"fips_code":"12101","name":"Pasco","state_code":"FL"},"search_areas":[{"city":"new port richey","state_code":"fl"}]},"photo_count":16,"photos":[{"description":null,"href":"https://ap.rdcpix.com/c9d84ac87f165e1ce4a67f645e76e871l-m3515585499s.jpg","type":null,"title":null,"tags":null},{"description":null,"href":"https://ap.rdcpix.com/c9d84ac87f165e1ce4a67f645e76e871l-m1332722768s.jpg","type":null,"title":null,"tags":null},{"description":null,"href":"https://ap.rdcpix.com/c9d84ac87f165e1ce4a67f645e76e871l-m914945762s.jpg","type":null,"title":null,"tags":null}],"pet_policy":{"cats":true,"dogs":true,"text":null},"primary_photo":{"description":null,"href":"https://ap.rdcpix.com/c9d84ac87f165e1ce4a67f645e76e871l-m3515585499s.jpg","type":null},"open_houses":null,"other_listings":{"rdc":[{"listing_id":"2941304388","status":"for_rent","primary":true},{"listing_id":"2863675831","status":"off_market","primary":null},{"listing_id":"2913936340","status":"off_market","primary":null},{"listing_id":"2794550156","status":"sold","primary":null}]},"products":null,"property_history":null,"property_id":"6965003042","source":{"agents":null,"id":"PROG","listing_id":"330447","community_id":null,"name":"ProgressResidential","type":"unit_rental"},"status":"for_rent","suppression_flags":{"has_suppress_list_date":true,"has_suppress_foreclosure":true},"tags":["pets_allowed","recreation_facilities","vaulted_ceiling","master_suite","rental_property","farm","ranch","smart_homes"],"when_indexed":"2022-08-23T20:10:17.131Z","home_photos":{"collection":[{"description":null,"href":"https://ap.rdcpix.com/c9d84ac87f165e1ce4a67f645e76e871l-m3515585499s.jpg","type":null,"title":null,"tags":null},{"description":null,"href":"https://ap.rdcpix.com/c9d84ac87f165e1ce4a67f645e76e871l-m1332722768s.jpg","type":null,"title":null,"tags":null},{"description":null,"href":"https://ap.rdcpix.com/c9d84ac87f165e1ce4a67f645e76e871l-m914945762s.jpg","type":null,"title":null,"tags":null}],"count":3}},{"permalink":"3426-Madison-St-1_Holiday_FL_34690_M91159-67790","lead_attributes":{"show_contact_an_agent":true},"branding":[{"type":"Office","photo":null,"name":null}],"price_reduced_date":"2022-08-18T00:04:07.845Z","price_reduced_amount":50,"matterport":false,"virtual_tours":null,"advertisers":[{"email":null,"fulfillment_id":null,"href":null,"mls_set":null,"name":null,"nrds_id":null,"office":{"email":"leasing@mynd.co","fulfillment_id":null,"mls_set":null,"href":null,"name":null,"phones":[{"ext":null,"number":"8333676963","primary":false,"trackable":null,"type":"primary"}]},"phones":null}],"description":{"baths":2,"baths_full":2,"baths_full_calc":2,"baths_half":null,"baths_3qtr":null,"baths_1qtr":null,"beds":2,"garage":null,"lot_sqft":null,"name":null,"sqft":1486,"sub_type":null,"type":"single_family","year_built":1980,"baths_min":null,"baths_max":null,"beds_max":null,"beds_min":null,"garage_min":null,"garage_max":null,"sqft_max":null,"sqft_min":null},"flags":{"is_pending":null,"is_deal_available":null,"is_for_rent":true,"is_garage_present":true,"is_senior_community":null,"is_new_listing":false},"href":"https://www.realtor.com/realestateandhomes-detail/3426-Madison-St-1_Holiday_FL_34690_M91159-67790","last_price_change_amount":-50,"last_price_change_date":"2022-08-18T00:04:07.845Z","last_update_date":"2022-08-18T00:04:07Z","list_date":"2022-07-28T00:02:44Z","list_price":1945,"list_price_min":null,"list_price_max":null,"listing_id":"2945841735","location":{"address":{"city":"Holiday","coordinate":{"lat":28.209078,"lon":-82.715093},"country":"USA","line":"3426 Madison St Unit 1","postal_code":"34690","state":"Florida","state_code":"FL","street_direction":null,"street_name":"Madison","street_number":"3426","street_post_direction":null,"street_suffix":"St","unit":"Unit 1"},"county":{"fips_code":"12101","name":"Pasco","state_code":"FL"},"search_areas":[{"city":"elfers","state_code":"fl"},{"city":"holiday","state_code":"fl"}]},"photo_count":18,"photos":[{"description":null,"href":"https://ap.rdcpix.com/711eb1db92f8e9c668c845a162bb2fccl-m483811657s.jpg","type":null,"title":null,"tags":null},{"description":null,"href":"https://ap.rdcpix.com/711eb1db92f8e9c668c845a162bb2fccl-m1616732931s.jpg","type":null,"title":null,"tags":null},{"description":null,"href":"https://ap.rdcpix.com/711eb1db92f8e9c668c845a162bb2fccl-m1713930706s.jpg","type":null,"title":null,"tags":null}],"pet_policy":{"cats":true,"dogs":true,"text":null},"primary_photo":{"description":null,"href":"https://ap.rdcpix.com/711eb1db92f8e9c668c845a162bb2fccl-m483811657s.jpg","type":null},"open_houses":null,"other_listings":{"rdc":[{"listing_id":"2945841735","status":"for_rent","primary":true}]},"products":null,"property_history":null,"property_id":"9115967790","source":{"agents":null,"id":"MYND","listing_id":"ba7od73dn2adkeel","community_id":null,"name":"Mynd.co","type":"unit_rental"},"status":"for_rent","suppression_flags":null,"tags":["dishwasher","pets_allowed","washer_dryer","garage_1_or_more","rental_property","medicalcare"],"when_indexed":"2022-08-23T06:44:23.645Z","home_photos":{"collection":[{"description":null,"href":"https://ap.rdcpix.com/711eb1db92f8e9c668c845a162bb2fccl-m483811657s.jpg","type":null,"title":null,"tags":null},{"description":null,"href":"https://ap.rdcpix.com/711eb1db92f8e9c668c845a162bb2fccl-m1616732931s.jpg","type":null,"title":null,"tags":null},{"description":null,"href":"https://ap.rdcpix.com/711eb1db92f8e9c668c845a162bb2fccl-m1713930706s.jpg","type":null,"title":null,"tags":null}],"count":3}},{"permalink":"1138-Jambalana-Dr-1_Holiday_FL_34691_M97997-15409","lead_attributes":{"show_contact_an_agent":true},"branding":[{"type":"Office","photo":null,"name":null}],"price_reduced_date":null,"price_reduced_amount":null,"matterport":false,"virtual_tours":null,"advertisers":[{"email":null,"fulfillment_id":null,"href":null,"mls_set":null,"name":null,"nrds_id":null,"office":{"email":"leasing@mynd.co","fulfillment_id":null,"mls_set":null,"href":null,"name":null,"phones":[{"ext":null,"number":"8333676963","primary":false,"trackable":null,"type":"primary"}]},"phones":null}],"description":{"baths":2,"baths_full":2,"baths_full_calc":2,"baths_half":null,"baths_3qtr":null,"baths_1qtr":null,"beds":2,"garage":null,"lot_sqft":null,"name":null,"sqft":1510,"sub_type":null,"type":"single_family","year_built":1986,"baths_min":null,"baths_max":null,"beds_max":null,"beds_min":null,"garage_min":null,"garage_max":null,"sqft_max":null,"sqft_min":null},"flags":{"is_pending":null,"is_deal_available":null,"is_for_rent":true,"is_garage_present":true,"is_senior_community":null,"is_new_listing":false},"href":"https://www.realtor.com/realestateandhomes-detail/1138-Jambalana-Dr-1_Holiday_FL_34691_M97997-15409","last_price_change_amount":null,"last_price_change_date":null,"last_update_date":"2022-08-16T00:03:11Z","list_date":"2022-08-07T00:02:43Z","list_price":2095,"list_price_min":null,"list_price_max":null,"listing_id":"2946504827","location":{"address":{"city":"Holiday","coordinate":{"lat":28.175857,"lon":-82.77008},"country":"USA","line":"1138 Jambalana Dr Unit 1","postal_code":"34691","state":"Florida","state_code":"FL","street_direction":null,"street_name":"Jambalana","street_number":"1138","street_post_direction":null,"street_suffix":"Dr","unit":"Unit 1"},"county":{"fips_code":"12101","name":"Pasco","state_code":"FL"},"search_areas":[{"city":"holiday","state_code":"fl"}]},"photo_count":33,"photos":[{"description":null,"href":"https://ap.rdcpix.com/12087982c510778c0f8b7b9fac9c8983l-m404987605s.jpg","type":null,"title":null,"tags":null},{"description":null,"href":"https://ap.rdcpix.com/12087982c510778c0f8b7b9fac9c8983l-m2801411126s.jpg","type":null,"title":null,"tags":null},{"description":null,"href":"https://ap.rdcpix.com/12087982c510778c0f8b7b9fac9c8983l-m898877378s.jpg","type":null,"title":null,"tags":null}],"pet_policy":{"cats":true,"dogs":true,"text":null},"primary_photo":{"description":null,"href":"https://ap.rdcpix.com/12087982c510778c0f8b7b9fac9c8983l-m404987605s.jpg","type":null},"open_houses":null,"other_listings":{"rdc":[{"listing_id":"2946504827","status":"for_rent","primary":true}]},"products":null,"property_history":null,"property_id":"9799715409","source":{"agents":null,"id":"MYND","listing_id":"nfjmd0tdfjocc8ha","community_id":null,"name":"Mynd.co","type":"unit_rental"},"status":"for_rent","suppression_flags":null,"tags":["dishwasher","pets_allowed","washer_dryer","garage_1_or_more","master_suite","rental_property"],"when_indexed":"2022-08-23T06:49:40.569Z","home_photos":{"collection":[{"description":null,"href":"https://ap.rdcpix.com/12087982c510778c0f8b7b9fac9c8983l-m404987605s.jpg","type":null,"title":null,"tags":null},{"description":null,"href":"https://ap.rdcpix.com/12087982c510778c0f8b7b9fac9c8983l-m2801411126s.jpg","type":null,"title":null,"tags":null},{"description":null,"href":"https://ap.rdcpix.com/12087982c510778c0f8b7b9fac9c8983l-m898877378s.jpg","type":null,"title":null,"tags":null}],"count":3}},{"permalink":"5248-School-Rd_New-Port-Richey_FL_34653_M60695-02444","lead_attributes":{"show_contact_an_agent":true},"branding":[{"type":"Office","photo":null,"name":"Palm Leaf Property Management"}],"price_reduced_date":null,"price_reduced_amount":null,"matterport":false,"virtual_tours":null,"advertisers":[{"email":"office@palmleafpm.com","fulfillment_id":"3876069","href":null,"mls_set":"A-ORFL-261546013","name":"NANCY GREENWOOD","nrds_id":null,"office":{"email":"office@palmleafpm.com","fulfillment_id":"0","mls_set":"O-ORFL-781178","href":null,"name":"Palm Leaf Property Management","phones":[{"ext":null,"number":"(813) 616-6000","primary":false,"trackable":null,"type":"Office"}]},"phones":[{"ext":null,"number":"8136166000","primary":false,"trackable":null,"type":"Office"}]}],"description":{"baths":2,"baths_full":2,"baths_full_calc":2,"baths_half":null,"baths_3qtr":null,"baths_1qtr":null,"beds":3,"garage":null,"lot_sqft":8556,"name":null,"sqft":1690,"sub_type":null,"type":"single_family","year_built":1972,"baths_min":null,"baths_max":null,"beds_max":null,"beds_min":null,"garage_min":null,"garage_max":null,"sqft_max":null,"sqft_min":null},"flags":{"is_pending":null,"is_deal_available":null,"is_for_rent":true,"is_garage_present":null,"is_senior_community":null,"is_new_listing":false},"href":"https://www.realtor.com/realestateandhomes-detail/5248-School-Rd_New-Port-Richey_FL_34653_M60695-02444","last_price_change_amount":null,"last_price_change_date":null,"last_update_date":"2022-08-18T20:55:13Z","list_date":"2022-07-14T00:23:16Z","list_price":1775,"list_price_min":null,"list_price_max":null,"listing_id":"2945319634","location":{"address":{"city":"New Port Richey","coordinate":{"lat":28.235472,"lon":-82.71419},"country":"USA","line":"5248 School Rd","postal_code":"34653","state":"Florida","state_code":"FL","street_direction":null,"street_name":"School","street_number":"5248","street_post_direction":null,"street_suffix":"Rd","unit":null},"county":{"fips_code":"12101","name":"Pasco","state_code":"FL"},"search_areas":[{"city":"new port richey","state_code":"fl"}]},"photo_count":11,"photos":[{"description":null,"href":"https://ap.rdcpix.com/8c88a499bb64d4ea491b22daca03befdl-m2663935877s.jpg","type":null,"title":null,"tags":null},{"description":null,"href":"https://ap.rdcpix.com/8c88a499bb64d4ea491b22daca03befdl-m2327968107s.jpg","type":null,"title":null,"tags":null},{"description":null,"href":"https://ap.rdcpix.com/8c88a499bb64d4ea491b22daca03befdl-m3009064391s.jpg","type":null,"title":null,"tags":null}],"pet_policy":{"cats":true,"dogs":true,"text":null},"primary_photo":{"description":null,"href":"https://ap.rdcpix.com/8c88a499bb64d4ea491b22daca03befdl-m2663935877s.jpg","type":null},"open_houses":null,"other_listings":{"rdc":[{"listing_id":"2945319634","status":"for_rent","primary":true},{"listing_id":"2937574023","status":"off_market","primary":null},{"listing_id":"582961462","status":"off_market","primary":null}]},"products":{"product_attributes":null,"products":["core.agent"]},"property_history":null,"property_id":"6069502444","source":{"agents":[{"agent_id":"261546013","agent_name":"Nancy Greenwood"}],"id":"ORFL","listing_id":"U8170001","community_id":null,"name":"StellarMLS","type":"mls"},"status":"for_rent","suppression_flags":null,"tags":["central_air","central_heat","pets_allowed","single_story","master_suite","park","shopping"],"when_indexed":"2022-08-23T05:29:29.786Z","home_photos":{"collection":[{"description":null,"href":"https://ap.rdcpix.com/8c88a499bb64d4ea491b22daca03befdl-m2663935877s.jpg","type":null,"title":null,"tags":null},{"description":null,"href":"https://ap.rdcpix.com/8c88a499bb64d4ea491b22daca03befdl-m2327968107s.jpg","type":null,"title":null,"tags":null},{"description":null,"href":"https://ap.rdcpix.com/8c88a499bb64d4ea491b22daca03befdl-m3009064391s.jpg","type":null,"title":null,"tags":null}],"count":3}},{"permalink":"5116-Plantation-Dr_Holiday_FL_34690_M61190-92375","lead_attributes":{"show_contact_an_agent":true},"branding":[{"type":"Office","photo":null,"name":"INVESTPRO PROPERTIES INC"}],"price_reduced_date":"2022-08-23T14:05:47.359Z","price_reduced_amount":50,"matterport":false,"virtual_tours":[{"href":"https://view.ricohtours.com/7742e914-71bb-4d68-920e-a71678e42545"}],"advertisers":[{"email":"don@remaxusa.net","fulfillment_id":"0","href":null,"mls_set":"A-ORFL-283513033","name":"Donald Arnold","nrds_id":null,"office":{"email":"montym@investproinc.com","fulfillment_id":"0","mls_set":"O-ORFL-276532978","href":null,"name":"INVESTPRO PROPERTIES INC","phones":[{"ext":null,"number":"(561) 203-7022","primary":false,"trackable":null,"type":"Office"}]},"phones":[{"ext":null,"number":"(727) 623-6326","primary":false,"trackable":null,"type":"Mobile"}]}],"description":{"baths":2,"baths_full":2,"baths_full_calc":2,"baths_half":null,"baths_3qtr":null,"baths_1qtr":null,"beds":3,"garage":2,"lot_sqft":6000,"name":null,"sqft":1446,"sub_type":null,"type":"single_family","year_built":1989,"baths_min":null,"baths_max":null,"beds_max":null,"beds_min":null,"garage_min":null,"garage_max":null,"sqft_max":null,"sqft_min":null},"flags":{"is_pending":null,"is_deal_available":null,"is_for_rent":true,"is_garage_present":true,"is_senior_community":null,"is_new_listing":false},"href":"https://www.realtor.com/realestateandhomes-detail/5116-Plantation-Dr_Holiday_FL_34690_M61190-92375","last_price_change_amount":-50,"last_price_change_date":"2022-08-23T14:05:47.359Z","last_update_date":"2022-08-23T00:43:27Z","list_date":"2022-07-27T00:23:50Z","list_price":2050,"list_price_min":null,"list_price_max":null,"listing_id":"2945793271","location":{"address":{"city":"Holiday","coordinate":{"lat":28.204119,"lon":-82.729575},"country":"USA","line":"5116 Plantation Dr","postal_code":"34690","state":"Florida","state_code":"FL","street_direction":null,"street_name":"Plantation","street_number":"5116","street_post_direction":null,"street_suffix":"Dr","unit":null},"county":{"fips_code":"12101","name":"Pasco","state_code":"FL"},"search_areas":[{"city":"elfers","state_code":"fl"},{"city":"holiday","state_code":"fl"}]},"photo_count":20,"photos":[{"description":null,"href":"https://ap.rdcpix.com/2b8dbe746a28c11785bb66204eb6a1f5l-m4205770613s.jpg","type":null,"title":null,"tags":null},{"description":null,"href":"https://ap.rdcpix.com/2b8dbe746a28c11785bb66204eb6a1f5l-m1141089924s.jpg","type":null,"title":null,"tags":null},{"description":null,"href":"https://ap.rdcpix.com/2b8dbe746a28c11785bb66204eb6a1f5l-m3706770928s.jpg","type":null,"title":null,"tags":null}],"pet_policy":{"cats":true,"dogs":true,"text":null},"primary_photo":{"description":null,"href":"https://ap.rdcpix.com/2b8dbe746a28c11785bb66204eb6a1f5l-m4205770613s.jpg","type":null},"open_houses":null,"other_listings":{"rdc":[{"listing_id":"2945793271","status":"for_rent","primary":true},{"listing_id":"2932291080","status":"off_market","primary":null},{"listing_id":"2930200914","status":"sold","primary":null}]},"products":null,"property_history":null,"property_id":"6119092375","source":{"agents":[{"agent_id":"283513033","agent_name":"Donald Arnold"}],"id":"ORFL","listing_id":"T3391464","community_id":null,"name":"StellarMLS","type":"mls"},"status":"for_rent","suppression_flags":null,"tags":["central_air","central_heat","dishwasher","fireplace","laundry_room","pets_allowed","single_story","garage_1_or_more","garage_2_or_more","modern_kitchen","open_kitchen","vaulted_ceiling","corner_lot","rental_property"],"when_indexed":"2022-08-23T14:18:03.073Z","home_photos":{"collection":[{"description":null,"href":"https://ap.rdcpix.com/2b8dbe746a28c11785bb66204eb6a1f5l-m4205770613s.jpg","type":null,"title":null,"tags":null},{"description":null,"href":"https://ap.rdcpix.com/2b8dbe746a28c11785bb66204eb6a1f5l-m1141089924s.jpg","type":null,"title":null,"tags":null},{"description":null,"href":"https://ap.rdcpix.com/2b8dbe746a28c11785bb66204eb6a1f5l-m3706770928s.jpg","type":null,"title":null,"tags":null}],"count":3}},{"permalink":"4311-Bonita-Rd_Holiday_FL_34691_M56170-71157","lead_attributes":{"show_contact_an_agent":true},"branding":[{"type":"Office","photo":null,"name":"Charles Rutenberg Realty"}],"price_reduced_date":null,"price_reduced_amount":null,"matterport":false,"virtual_tours":null,"advertisers":[{"email":"Nehad.Alhassan@gmail.com","fulfillment_id":"3013158","href":"http://marshmallowexperiment.com","mls_set":"A-ORFL-260043004","name":"Nehad Alhassan","nrds_id":"260043004","office":{"email":"john@gocrr.com","fulfillment_id":"1855564","mls_set":"O-ORFL-260000779","href":null,"name":"Charles Rutenberg Realty","phones":[{"ext":null,"number":"8665806402","primary":false,"trackable":null,"type":"Office"}]},"phones":[{"ext":null,"number":"7277551321","primary":false,"trackable":null,"type":"Mobile"}]}],"description":{"baths":1,"baths_full":1,"baths_full_calc":1,"baths_half":null,"baths_3qtr":null,"baths_1qtr":null,"beds":3,"garage":null,"lot_sqft":5246,"name":null,"sqft":1340,"sub_type":null,"type":"single_family","year_built":1963,"baths_min":null,"baths_max":null,"beds_max":null,"beds_min":null,"garage_min":null,"garage_max":null,"sqft_max":null,"sqft_min":null},"flags":{"is_pending":null,"is_deal_available":null,"is_for_rent":true,"is_garage_present":null,"is_senior_community":null,"is_new_listing":false},"href":"https://www.realtor.com/realestateandhomes-detail/4311-Bonita-Rd_Holiday_FL_34691_M56170-71157","last_price_change_amount":null,"last_price_change_date":null,"last_update_date":"2022-08-14T18:15:40Z","list_date":"2022-08-10T19:10:59Z","list_price":1550,"list_price_min":null,"list_price_max":null,"listing_id":"2946597660","location":{"address":{"city":"Holiday","coordinate":{"lat":28.188025,"lon":-82.742766},"country":"USA","line":"4311 Bonita Rd","postal_code":"34691","state":"Florida","state_code":"FL","street_direction":null,"street_name":"Bonita","street_number":"4311","street_post_direction":null,"street_suffix":"Rd","unit":null},"county":{"fips_code":"12101","name":"Pasco","state_code":"FL"},"search_areas":[{"city":"holiday","state_code":"fl"}]},"photo_count":35,"photos":[{"description":null,"href":"https://ap.rdcpix.com/1aa142890cebe979fa3aece2e45ec50al-m2435005461s.jpg","type":null,"title":null,"tags":null},{"description":null,"href":"https://ap.rdcpix.com/1aa142890cebe979fa3aece2e45ec50al-m3410635469s.jpg","type":null,"title":null,"tags":null},{"description":null,"href":"https://ap.rdcpix.com/1aa142890cebe979fa3aece2e45ec50al-m274341815s.jpg","type":null,"title":null,"tags":null}],"pet_policy":null,"primary_photo":{"description":null,"href":"https://ap.rdcpix.com/1aa142890cebe979fa3aece2e45ec50al-m2435005461s.jpg","type":null},"open_houses":null,"other_listings":{"rdc":[{"listing_id":"2946597660","status":"for_rent","primary":true},{"listing_id":"2945323214","status":"off_market","primary":null},{"listing_id":"2944207098","status":"off_market","primary":null},{"listing_id":"2943390870","status":"off_market","primary":null},{"listing_id":"650237866","status":"off_market","primary":null},{"listing_id":"646899118","status":"off_market","primary":null},{"listing_id":"622827514","status":"off_market","primary":null},{"listing_id":"607716798","status":"sold","primary":null},{"listing_id":"589414022","status":"sold","primary":null}]},"products":{"product_attributes":{"lead_phone_number.office":"(866) 580-6402","lead_phone_number.office.mapped_number":"(866) 580-6402","mlsRanks":[{"mls":"ORFL","rank":1}]},"products":["core.agent","core.broker"]},"property_history":null,"property_id":"5617071157","source":{"agents":[{"agent_id":"260043004","agent_name":"Nehad Alhassan"}],"id":"ORFL","listing_id":"U8173050","community_id":null,"name":"StellarMLS","type":"mls"},"status":"for_rent","suppression_flags":null,"tags":["central_air","central_heat","single_story","updated_kitchen","big_yard","fenced_yard","corner_lot","big_lot","beach","shopping"],"when_indexed":"2022-08-23T05:46:29.786Z","home_photos":{"collection":[{"description":null,"href":"https://ap.rdcpix.com/1aa142890cebe979fa3aece2e45ec50al-m2435005461s.jpg","type":null,"title":null,"tags":null},{"description":null,"href":"https://ap.rdcpix.com/1aa142890cebe979fa3aece2e45ec50al-m3410635469s.jpg","type":null,"title":null,"tags":null},{"description":null,"href":"https://ap.rdcpix.com/1aa142890cebe979fa3aece2e45ec50al-m274341815s.jpg","type":null,"title":null,"tags":null}],"count":3}},{"permalink":"6809-Crossbow-Ln_New-Port-Richey_FL_34653_M55215-44025","lead_attributes":{"show_contact_an_agent":true},"branding":[{"type":"Office","photo":null,"name":null}],"price_reduced_date":null,"price_reduced_amount":null,"matterport":false,"virtual_tours":null,"advertisers":[{"email":null,"fulfillment_id":null,"href":null,"mls_set":null,"name":null,"nrds_id":null,"office":{"email":"listings+60482018@reply.avail.co","fulfillment_id":null,"mls_set":null,"href":null,"name":null,"phones":null},"phones":null}],"description":{"baths":2,"baths_full":2,"baths_full_calc":2,"baths_half":null,"baths_3qtr":null,"baths_1qtr":null,"beds":3,"garage":null,"lot_sqft":null,"name":null,"sqft":1400,"sub_type":null,"type":"single_family","year_built":null,"baths_min":null,"baths_max":null,"beds_max":null,"beds_min":null,"garage_min":null,"garage_max":null,"sqft_max":null,"sqft_min":null},"flags":{"is_pending":null,"is_deal_available":null,"is_for_rent":true,"is_garage_present":true,"is_senior_community":null,"is_new_listing":true},"href":"https://www.realtor.com/realestateandhomes-detail/6809-Crossbow-Ln_New-Port-Richey_FL_34653_M55215-44025","last_price_change_amount":null,"last_price_change_date":null,"last_update_date":"2022-08-22T15:03:52Z","list_date":"2022-08-22T15:03:52Z","list_price":1950,"list_price_min":null,"list_price_max":null,"listing_id":"2946940289","location":{"address":{"city":"New Port Richey","coordinate":{"lat":28.256442,"lon":-82.702549},"country":"USA","line":"6809 Crossbow Ln","postal_code":"34653","state":"Florida","state_code":"FL","street_direction":null,"street_name":"Crossbow","street_number":"6809","street_post_direction":null,"street_suffix":"Ln","unit":null},"county":{"fips_code":"12101","name":"Pasco","state_code":"FL"},"search_areas":[{"city":"new port richey","state_code":"fl"}]},"photo_count":14,"photos":[{"description":null,"href":"https://ap.rdcpix.com/120d2ae442160be585e6c81598cfdfbal-m4244818189s.jpg","type":null,"title":null,"tags":null},{"description":null,"href":"https://ap.rdcpix.com/120d2ae442160be585e6c81598cfdfbal-m1324558202s.jpg","type":null,"title":null,"tags":null},{"description":null,"href":"https://ap.rdcpix.com/120d2ae442160be585e6c81598cfdfbal-m1207519833s.jpg","type":null,"title":null,"tags":null}],"pet_policy":{"cats":true,"dogs":true,"text":null},"primary_photo":{"description":null,"href":"https://ap.rdcpix.com/120d2ae442160be585e6c81598cfdfbal-m4244818189s.jpg","type":null},"open_houses":null,"other_listings":{"rdc":[{"listing_id":"2946940289","status":"for_rent","primary":true},{"listing_id":"2946023936","status":"off_market","primary":null}]},"products":null,"property_history":null,"property_id":"5521544025","source":{"agents":null,"id":"AVAL","listing_id":"60482018","community_id":null,"name":"Avail","type":"unit_rental"},"status":"for_rent","suppression_flags":null,"tags":["pets_allowed","washer_dryer","garage_1_or_more","updated_kitchen","fenced_yard","high_ceiling","vaulted_ceiling","floor_plan","rental_property"],"when_indexed":"2022-08-22T15:23:10.411Z","home_photos":{"collection":[{"description":null,"href":"https://ap.rdcpix.com/120d2ae442160be585e6c81598cfdfbal-m4244818189s.jpg","type":null,"title":null,"tags":null},{"description":null,"href":"https://ap.rdcpix.com/120d2ae442160be585e6c81598cfdfbal-m1324558202s.jpg","type":null,"title":null,"tags":null},{"description":null,"href":"https://ap.rdcpix.com/120d2ae442160be585e6c81598cfdfbal-m1207519833s.jpg","type":null,"title":null,"tags":null}],"count":3}}],"top_real_estate_markets":{"title":"Apartments for Rent in Florida","top_markets":[{"url":"https://www.realtor.com/apartments/Miami_FL","city":"Miami Apartments for Rent","text":"Miami Apartments for Rent"},{"url":"https://www.realtor.com/apartments/Jacksonville_FL","city":"Jacksonville Apartments for Rent","text":"Jacksonville Apartments for Rent"},{"url":"https://www.realtor.com/apartments/Orlando_FL","city":"Orlando Apartments for Rent","text":"Orlando Apartments for Rent"},{"url":"https://www.realtor.com/apartments/Tampa_FL","city":"Tampa Apartments for Rent","text":"Tampa Apartments for Rent"},{"url":"https://www.realtor.com/apartments/Naples_FL","city":"Naples Apartments for Rent","text":"Naples Apartments for Rent"},{"url":"https://www.realtor.com/apartments/Miami-Beach_FL","city":"Miami Beach Apartments for Rent","text":"Miami Beach Apartments for Rent"},{"url":"https://www.realtor.com/apartments/Fort-Lauderdale_FL","city":"Fort Lauderdale Apartments for Rent","text":"Fort Lauderdale Apartments for Rent"},{"url":"https://www.realtor.com/apartments/West-Palm-Beach_FL","city":"West Palm Beach Apartments for Rent","text":"West Palm Beach Apartments for Rent"},{"url":"https://www.realtor.com/apartments/Boca-Raton_FL","city":"Boca Raton Apartments for Rent","text":"Boca Raton Apartments for Rent"},{"url":"https://www.realtor.com/apartments/Hollywood_FL","city":"Hollywood Apartments for Rent","text":"Hollywood Apartments for Rent"},{"url":"https://www.realtor.com/apartments/Sarasota_FL","city":"Sarasota Apartments for Rent","text":"Sarasota Apartments for Rent"},{"url":"https://www.realtor.com/apartments/Delray-Beach_FL","city":"Delray Beach Apartments for Rent","text":"Delray Beach Apartments for Rent"},{"url":"https://www.realtor.com/apartments/Doral_FL","city":"Doral Apartments for Rent","text":"Doral Apartments for Rent"},{"url":"https://www.realtor.com/apartments/Sunny-Isles-Beach_FL","city":"Sunny Isles Beach Apartments for Rent","text":"Sunny Isles Beach Apartments for Rent"},{"url":"https://www.realtor.com/apartments/Fort-Myers_FL","city":"Fort Myers Apartments for Rent","text":"Fort Myers Apartments for Rent"},{"url":"https://www.realtor.com/apartments/Pompano-Beach_FL","city":"Pompano Beach Apartments for Rent","text":"Pompano Beach Apartments for Rent"},{"url":"https://www.realtor.com/apartments/Clearwater_FL","city":"Clearwater Apartments for Rent","text":"Clearwater Apartments for Rent"},{"url":"https://www.realtor.com/apartments/Cape-Coral_FL","city":"Cape Coral Apartments for Rent","text":"Cape Coral Apartments for Rent"},{"url":"https://www.realtor.com/apartments/Kissimmee_FL","city":"Kissimmee Apartments for Rent","text":"Kissimmee Apartments for Rent"},{"url":"https://www.realtor.com/apartments/Pembroke-Pines_FL","city":"Pembroke Pines Apartments for Rent","text":"Pembroke Pines Apartments for Rent"},{"url":"https://www.realtor.com/apartments/Bradenton_FL","city":"Bradenton Apartments for Rent","text":"Bradenton Apartments for Rent"},{"url":"https://www.realtor.com/apartments/Plantation_Broward-County_FL","city":"Plantation Apartments for Rent","text":"Plantation Apartments for Rent"},{"url":"https://www.realtor.com/apartments/Hallandale-Beach_FL","city":"Hallandale Beach Apartments for Rent","text":"Hallandale Beach Apartments for Rent"},{"url":"https://www.realtor.com/apartments/Boynton-Beach_FL","city":"Boynton Beach Apartments for Rent","text":"Boynton Beach Apartments for Rent"},{"url":"https://www.realtor.com/apartments/Aventura_FL","city":"Aventura Apartments for Rent","text":"Aventura Apartments for Rent"},{"url":"https://www.realtor.com/apartments/Coral-Springs_FL","city":"Coral Springs Apartments for Rent","text":"Coral Springs Apartments for Rent"},{"url":"https://www.realtor.com/apartments/Vero-Beach_FL","city":"Vero Beach Apartments for Rent","text":"Vero Beach Apartments for Rent"},{"url":"https://www.realtor.com/apartments/Wellington_FL","city":"Wellington Apartments for Rent","text":"Wellington Apartments for Rent"}]},"popular_searches":null,"property_types":null},"status_code":200,"seo":{"metadata":{"title":"Pinellas County, FL Houses \u0026 Single Family Homes For Rent | realtor.com","description":"See all 9 apartments and houses for rent in Pinellas County, FL, including cheap, affordable, luxury and pet-friendly rentals. View floor plans, photos, prices and find the perfect rental today.","canonical_url":"https://www.realtor.com/apartments/Pinellas-County_FL","header_1":"Pinellas County, FL Houses \u0026 Single Family Homes For Rent","deep_links":{"ios":"ios-app://336698281/move-rdc/www.realtor.com/apartments/Pinellas-County_FL","android":"android-app://com.move.realtor/move-rdc/www.realtor.com/apartments/Pinellas-County_FL"}},"snippets":{"title":{"text":"Homes for Rent in Pinellas County, FL"},"body":{"text":"There are 9 active homes for rent in Pinellas County, which spend an average of 45 days on the market. Some of the nearby neighborhoods near Pinellas County are {neighborhood_1}, {neighborhood_2}, {neighborhood_3}, and {neighborhood_4}. You may also be interested in homes that are for rent in the nearby ZIP codes of {postal_code_1}, {postal_code_2}, or in neighboring cities, such as {city_1}, {city_2}, {city_3}, or {city_4}.","data_points":{"neighborhood_1":{"name":"East Lake Woodlands","url":"https://www.realtor.com/apartments/East-Lake-Woodlands_Oldsmar_FL"},"neighborhood_2":{"name":"Sand Key","url":"https://www.realtor.com/apartments/Sand-Key_Clearwater-Beach_FL"},"neighborhood_3":{"name":"Highland Lakes","url":"https://www.realtor.com/apartments/Highland-Lakes_Palm-Harbor_FL"},"neighborhood_4":{"name":"East Bay","url":"https://www.realtor.com/apartments/East-Bay_Largo_FL"},"postal_code_1":{"name":"34698","url":"https://www.realtor.com/apartments/34698"},"postal_code_2":{"name":"33706","url":"https://www.realtor.com/apartments/33706"},"city_1":{"name":"Tampa","url":"https://www.realtor.com/apartments/Tampa_FL"},"city_2":{"name":"Clearwater","url":"https://www.realtor.com/apartments/Clearwater_FL"},"city_3":{"name":"New Port Richey","url":"https://www.realtor.com/apartments/New-Port-Richey_FL"},"city_4":{"name":"Largo","url":"https://www.realtor.com/apartments/Largo_FL"}}}}}},"customSearchType":"","isExpandSearch":true,"expandSearchTotal":9,"market_trends":{"active_listing_count":2743,"active_listing_count_direction":"down","median":{"listing_price":419900,"age_days":45,"listing_price_sqft":301,"rental_listing_price":2213},"asking_to_sold_price_percent_change":-10.69302214813051},"schoolModuleResults":{"elementary":{"schools":[{"id":"0717179111","name":"Cypress Woods Elementary School","rating":10,"slug_id":"Cypress-Woods-Elementary-School-0717179111","location":{"city":"Palm Harbor","state":"FL","city_slug_id":"Palm-Harbor_FL"}},{"id":"0717179141","name":"Sutherland Elementary School","rating":10,"slug_id":"Sutherland-Elementary-School-0717179141","location":{"city":"Palm Harbor","state":"FL","city_slug_id":"Palm-Harbor_FL"}},{"id":"0717178351","name":"Curtis Fundamental Elementary School","rating":10,"slug_id":"Curtis-Fundamental-Elementary-School-0717178351","location":{"city":"Dunedin","state":"FL","city_slug_id":"Dunedin_FL"}},{"id":"0717178411","name":"Pasadena Fundamental Elementary School","rating":10,"slug_id":"Pasadena-Fundamental-Elementary-School-0717178411","location":{"city":"ST PETERSBURG","state":"FL","city_slug_id":"ST-PETERSBURG_FL"}},{"id":"0717178911","name":"Tarpon Springs Fundamental Elementary School","rating":10,"slug_id":"Tarpon-Springs-Fundamental-Elementary-School-0717178911","location":{"city":"Tarpon Springs","state":"FL","city_slug_id":"Tarpon-Springs_FL"}},{"id":"0717179461","name":"Brooker Creek Elementary School","rating":9,"slug_id":"Brooker-Creek-Elementary-School-0717179461","location":{"city":"Tarpon Springs","state":"FL","city_slug_id":"Tarpon-Springs_FL"}},{"id":"0717234611","name":"Plato Academy Charter School","rating":9,"slug_id":"Plato-Academy-Charter-School-0717234611","location":{"city":"Clearwater","state":"FL","city_slug_id":"Clearwater_FL"}},{"id":"0717177511","name":"Anona Elementary School","rating":9,"slug_id":"Anona-Elementary-School-0717177511","location":{"city":"Largo","state":"FL","city_slug_id":"Largo_FL"}},{"id":"0717178331","name":"Orange Grove Elementary School","rating":9,"slug_id":"Orange-Grove-Elementary-School-0717178331","location":{"city":"Seminole","state":"FL","city_slug_id":"Seminole_FL"}}],"total":111},"middle":{"schools":[{"id":"0717234611","name":"Plato Academy Charter School","rating":9,"slug_id":"Plato-Academy-Charter-School-0717234611","location":{"city":"Clearwater","state":"FL","city_slug_id":"Clearwater_FL"}},{"id":"0717409001","name":"East Lake Middle School Academy Of Engineering","rating":9,"slug_id":"East-Lake-Middle-School-Academy-Of-Engineering-0717409001","location":{"city":"Tarpon Springs","state":"FL","city_slug_id":"Tarpon-Springs_FL"}},{"id":"0717329121","name":"Plato Academy Palm Harbor Charter School","rating":9,"slug_id":"Plato-Academy-Palm-Harbor-Charter-School-0717329121","location":{"city":"Palm Harbor","state":"FL","city_slug_id":"Palm-Harbor_FL"}},{"id":"0717179521","name":"Academie Da Vinci Charter School","rating":9,"slug_id":"Academie-Da-Vinci-Charter-School-0717179521","location":{"city":"Dunedin","state":"FL","city_slug_id":"Dunedin_FL"}},{"id":"0717178131","name":"Madeira Beach Fundamental K-8","rating":8,"slug_id":"Madeira-Beach-Fundamental-K-8-0717178131","location":{"city":"MADEIRA BEACH","state":"FL","city_slug_id":"Madeira-Beach_FL"}},{"id":"0717179431","name":"Clearwater Fundamental Middle School","rating":8,"slug_id":"Clearwater-Fundamental-Middle-School-0717179431","location":{"city":"Clearwater","state":"FL","city_slug_id":"Clearwater_FL"}},{"id":"0717407131","name":"Discovery Academy Of Science Charter School","rating":8,"slug_id":"Discovery-Academy-Of-Science-Charter-School-0717407131","location":{"city":"Dunedin","state":"FL","city_slug_id":"Dunedin_FL"}},{"id":"0717407151","name":"Plato Academy Of St.Petersburg","rating":8,"slug_id":"Plato-Academy-Of-St.Petersburg-0717407151","location":{"city":"St. Petersburg","state":"FL","city_slug_id":"St.-Petersburg_FL"}},{"id":"0717335941","name":"Plato Seminole","rating":8,"slug_id":"Plato-Seminole-0717335941","location":{"city":"Largo","state":"FL","city_slug_id":"Largo_FL"}}],"total":59},"high":{"schools":[{"id":"0717234621","name":"St. Petersburg Collegiate High School","rating":10,"slug_id":"St.-Petersburg-Collegiate-High-School-0717234621","location":{"city":"ST PETERSBURG","state":"FL","city_slug_id":"ST-PETERSBURG_FL"}},{"id":"0717179041","name":"Osceola Fundamental High School","rating":9,"slug_id":"Osceola-Fundamental-High-School-0717179041","location":{"city":"Seminole","state":"FL","city_slug_id":"Seminole_FL"}},{"id":"0717179421","name":"Palm Harbor University High School","rating":7,"slug_id":"Palm-Harbor-University-High-School-0717179421","location":{"city":"Palm Harbor","state":"FL","city_slug_id":"Palm-Harbor_FL"}},{"id":"0717179451","name":"East Lake High School","rating":6,"slug_id":"East-Lake-High-School-0717179451","location":{"city":"Tarpon Springs","state":"FL","city_slug_id":"Tarpon-Springs_FL"}},{"id":"0717239411","name":"Hospital/Homebound","rating":6,"slug_id":"Hospital$Homebound-0717239411","location":{"city":"Clearwater","state":"FL","city_slug_id":"Clearwater_FL"}},{"id":"0717412861","name":"Pinellas Virtual Franchise","rating":6,"slug_id":"Pinellas-Virtual-Franchise-0717412861","location":{"city":"Largo","state":"FL","city_slug_id":"Largo_FL"}},{"id":"0717178611","name":"St. Petersburg High School","rating":5,"slug_id":"St.-Petersburg-High-School-0717178611","location":{"city":"ST PETERSBURG","state":"FL","city_slug_id":"ST-PETERSBURG_FL"}},{"id":"0717178231","name":"Northeast High School","rating":5,"slug_id":"Northeast-High-School-0717178231","location":{"city":"ST PETERSBURG","state":"FL","city_slug_id":"ST-PETERSBURG_FL"}},{"id":"0717178051","name":"Largo High School","rating":4,"slug_id":"Largo-High-School-0717178051","location":{"city":"Largo","state":"FL","city_slug_id":"Largo_FL"}}],"total":44},"private":{"schools":[{"id":"0717190641","name":"Shorecrest Preparatory School","rating":null,"slug_id":"Shorecrest-Preparatory-School-0717190641","location":{"city":"St. Petersburg","state":"FL","city_slug_id":"St.-Petersburg_FL"}},{"id":"0717191551","name":"Keswick Christian School","rating":null,"slug_id":"Keswick-Christian-School-0717191551","location":{"city":"St. Petersburg","state":"FL","city_slug_id":"St.-Petersburg_FL"}},{"id":"0717193601","name":"Northside Christian School","rating":null,"slug_id":"Northside-Christian-School-0717193601","location":{"city":"St. Petersburg","state":"FL","city_slug_id":"St.-Petersburg_FL"}},{"id":"0717189041","name":"Clearwater Central Catholic High School","rating":null,"slug_id":"Clearwater-Central-Catholic-High-School-0717189041","location":{"city":"Clearwater","state":"FL","city_slug_id":"Clearwater_FL"}},{"id":"0717204801","name":"Lutheran Church Of The Cross Day School","rating":null,"slug_id":"Lutheran-Church-Of-The-Cross-Day-School-0717204801","location":{"city":"St. Petersburg","state":"FL","city_slug_id":"St.-Petersburg_FL"}},{"id":"0717189031","name":"St Cecelia Interparochial School","rating":null,"slug_id":"St-Cecelia-Interparochial-School-0717189031","location":{"city":"Clearwater","state":"FL","city_slug_id":"Clearwater_FL"}},{"id":"0717223661","name":"Calvary Christian High School","rating":null,"slug_id":"Calvary-Christian-High-School-0717223661","location":{"city":"Clearwater","state":"FL","city_slug_id":"Clearwater_FL"}},{"id":"0717192261","name":"St Petersburg Christian School","rating":null,"slug_id":"St-Petersburg-Christian-School-0717192261","location":{"city":"St. Petersburg","state":"FL","city_slug_id":"St.-Petersburg_FL"}},{"id":"0717190061","name":"Canterbury School of Florida - Knowlton Campus","rating":null,"slug_id":"Canterbury-School-of-Florida-Knowlton-Campus-0717190061","location":{"city":"St. Petersburg","state":"FL","city_slug_id":"St.-Petersburg_FL"}}],"total":166},"university":[{"lid":"00000001104484249001","name":"Stetson University College of Law","slug_id":"Stetson-University-College-Of-Law-00000001104484249001","city":"DeLand","city_slug_id":"DeLand_FL","state_code":"FL"},{"lid":"00000001104484220186","name":"Clearwater Christian College","slug_id":"Clearwater-Christian-College-00000001104484220186","city":"Clearwater","city_slug_id":"Clearwater_FL","state_code":"FL"},{"lid":"00000001104484220580","name":"Eckerd College","slug_id":"Eckerd-College-00000001104484220580","city":"St. Petersburg","city_slug_id":"St.-Petersburg_FL","state_code":"FL"},{"lid":"00000001104484250519","name":"University of South Florida Saint Petersburg","slug_id":"University-Of-South-Florida-Saint-Petersburg-00000001104484250519","city":"St. Petersburg","city_slug_id":"St.-Petersburg_FL","state_code":"FL"}],"district":{"districts":[{"id":"06160000731","name":"Pinellas","rating":null,"slug_id":"Pinellas-06160000731","location":{"city":"Largo","state":"FL","city_slug_id":"Largo_FL"}}],"total":1},"status_code":200},"articles":[{"post_id":"714804","canonical":"https://www.realtor.com/advice/rent/landlord-or-renter-who-has-to-handle-noisy-neighbors/","seo_url":"/advice/rent/landlord-or-renter-who-has-to-handle-noisy-neighbors/","title":"Landlord or Renter: Who Has To Handle Noisy Neighbors?","status":"publish","hide_mid_ad":"No","hide_viglink":"No","hide_publish_date":"No","map_details":"MAP DATA NOT AVAILABLEArray Count","body":"\u003cp\u003eWeve all been there: silently fuming while desperately trying to fall asleep, get work done, or just go about the day in peace as a neighbor shatters the silence with some racket. The deafening music, the raised voices, unrelenting hammering, or other distracting noises can become a nightmare, especially in a building where you're in close proximityor even sharing wallswith your neighbors.\u003c/p\u003e\n\u003cp\u003eIf you own your home, youre going to have to figure out how to handle the noise pollution yourselfbut what if you rent? Whose job is it to curb the commotion, yours or your landlord's?\u003c/p\u003e\n\u003cp\u003e\u003cscript src=\"https://www.buzzsprout.com/214131/10206675-123-one-team-s-trifecta-power-move-on-rock-the-block-boosts-their-home-value.js?container_id=buzzsprout-player-10206675\u0026player=small\" type=\"text/javascript\" charset=\"utf-8\"\u003e\u003c/script\u003e\u003c/p\u003e\n\u003cp\u003eKeeping residential noise to a dull roar has become especially prevalent as more of us have moved to working from home. In fact, all kinds of noise ordinances have cropped up in the past few years. In Boulder, CO, for example, it is now illegal to make any noise above \u003ca href=\"https://bouldercityreview.com/news/lets-not-get-loud-new-city-ordinance-limits-sound-levels-68215/\"\u003e70 decibels\u003c/a\u003e in a residential area. In communities across California, Illinois, New York, Massachusetts, and Arizona, regulations against excessive leaf blower noise have been instituted.\u003c/p\u003e\n\u003cp\u003eAnd while some of these rules may seem extreme, studies show that noise pollution does more than just bug people; it also affects their mental health. (\u003ca href=\"https://ehp.niehs.nih.gov/doi/10.1289/ehp.1409400\" target=\"_blank\" rel=\"noopener\"\u003eOne study\u003c/a\u003e found that people in noisy neighborhoods were 25% more likely to be depressed.)\u003c/p\u003e\n\u003cp\u003eBelow, we broach this touchy subject and provide clarity for renters who find themselves in this situation. Here's how to deal with noisy neighbors and what to do if the problem isn't being resolved.\u003c/p\u003e\n\u003ch2 id=\"landlord-or-renter-it-depends\"\u003eLandlord or renter? It depends!\u003c/h2\u003e\n\u003cp\u003eLaws vary by state, and different types of residences also have to be taken into consideration.\u003c/p\u003e\n\u003cp\u003eThe situation changes depending on whether youre talking about a duplex or multifamily property, or a single-family rental home, says \u003cstrong\u003eJacob Naig\u003c/strong\u003e, owner of We Buy Houses in Des Moines, IA. In a single-family home, if the neighbor is having late-night parties or causing a general noise disturbance, the occupier should address the situation with the neighbor politely and then place a call to the police if they dont comply.\u003c/p\u003e\n\u003cp\u003eBut if its a large apartment or anywhere that an interior wall is shared, the dynamics change.\u003c/p\u003e\n\u003cp\u003eI would still suggest trying to talk to the neighbor first, and see if you can resolve the situation,\" says Naig. \"If it doesnt work, the landlord will have to step in. Vacancy costs every landlord, and theyll do what they can so they dont have to turn over the units.\u003c/p\u003e\n\u003cp\u003eNo matter where you live, you should read the fine print of your lease agreement, and add any clauses regarding noise that you foresee being relevant.\u003c/p\u003e\n\u003cp\u003eIn Missouri, for example, the landlord-tenant law does not specify that the landlord has to deal with a noisy tenant, says \u003cstrong\u003eBob Scott\u003c/strong\u003e, founder of Sell Land, based in Missouri. But if you specify beforehand in the lease agreement that your landlord should deal with noisy neighbors, then they will be legally obligated to enforce this provision if they signed the agreement.\u003c/p\u003e\n\u003ch2 id=\"what-to-do-if-the-ruckus-wont-stop\"\u003eWhat to do if the ruckus won't stop\u003c/h2\u003e\n\u003cp\u003eAs a renter, if you find yourself in an unmanageable situation with a noisy neighbor, there are several ways to address the problem, without requiring a change of address.\u003c/p\u003e\n\u003cp\u003e\"The tenants who live in a rental house have the right to quiet, says \u003cstrong\u003eBen Fisher\u003c/strong\u003e, a luxury real estate specialist at the Fisher Group in Park City, UT. Landlords are ultimately responsible for resolving inconveniences created by loud neighbors.\" So your first step should be to contact the landlord and report the excessive noise.\u003c/p\u003e\n\u003cp\u003eYou should also look up your city's laws about noise. Many areas have designated quiet hours or decibel noise limits. So if your city's quiet hours run from 10 p.m. to 7 a.m., keep a log of every time your neighbor is practicing tuba inside of those hours. You can present this log as further proof that your neighbor is breaking the law.\u003c/p\u003e\n\u003cp\u003eIf going to your landlord proves futile and the ruckus won't stop, the next step is to contact the police. This strategy will be most effective when the noise is actually happening.\u003c/p\u003e\n\u003cp\u003eUltimately though, you may just have to move.\u003c/p\u003e\n\u003cp\u003eYou are free to leave your rental without any further responsibility in such a case if you have provided a proper amount of notice, Fisher says.\u003c/p\u003e\n","modified":"2022-08-22T22:07:43+00:00","published":"2022-08-21T21:30:13+00:00","slug":"landlord-or-renter-who-has-to-handle-noisy-neighbors","author":{"ID":827,"name":"Kathleen Willcox","slug":"kwillcox","display_name":"Kathleen Willcox","description":"Kathleen Willcox is a journalist who covers real estate, travel, and food and wine. She lives in Saratoga Springs, NY.","twitter_contact":"@SustainableKW"},"category":{"name":"Rent","parent":"Advice"},"featured_image":{"ID":"750490","source_ngi":"https://na.rdcpix.com/f031bcdc8843981c2d7465a3335d1e8cw-c4216545332srd_q80.jpg","source_mobile":"https://na.rdcpix.com/f031bcdc8843981c2d7465a3335d1e8cw-c4216545332rd-w300_h300_r4_q80.jpg","source_mobile_retina":"https://na.rdcpix.com/f031bcdc8843981c2d7465a3335d1e8cw-c4216545332rd-w506_h284_r4_q80.jpg","source_desktop":"https://na.rdcpix.com/f031bcdc8843981c2d7465a3335d1e8cw-c4216545332rd-w628_h354_r4_q80.jpg","source_desktop_retina":"https://na.rdcpix.com/f031bcdc8843981c2d7465a3335d1e8cw-c4216545332rd-w1024_h1024_r4_q80.jpg","source_thumbnail":"https://na.rdcpix.com/f031bcdc8843981c2d7465a3335d1e8cw-c4216545332rd-w145_h81_r4_q80.jpg","source_thumbnail_retina":"https://na.rdcpix.com/f031bcdc8843981c2d7465a3335d1e8cw-c4216545332rd-w290_h164_r4_q80.jpg","credit":"Realtor.com / Getty Images","type":"image","alt_text":"noisy neighbors-100"},"related":[{"img_src_retina":"https://na.rdcpix.com/6e46febf8ca03efa1d88c297a9a19d54w-c3164005002rd-w506_h284_r4_q80.jpg","seo_url":"/news/trends/i-hate-open-shelving/","post_id":"495709","attribution":{},"img_alt":"update-open-shelving","title":"I Hate Open Shelving in the Kitchen, Case Closed","img_src":"https://na.rdcpix.com/6e46febf8ca03efa1d88c297a9a19d54w-c3164005002rd-w300_h300_r4_q80.jpg"},{"img_src_retina":"https://na.rdcpix.com/3cda55c90252bbee5c402ed7bd77d1e0w-c2101111274rd-w506_h284_r4_q80.jpg","seo_url":"/advice/buy/is-the-worst-over-new-reality-of-buying-a-home-today/","post_id":"749548","attribution":{},"img_alt":"home-selling-buying-climate-today-trends","title":"Is the Worst Over? 4 (Mostly) Bright, New Realities of Buying a Home Today","img_src":"https://na.rdcpix.com/3cda55c90252bbee5c402ed7bd77d1e0w-c2101111274rd-w300_h300_r4_q80.jpg"},{"img_src_retina":"https://na.rdcpix.com/7d8d601b9a27c884735d73623a09653bw-c306071180rd-w506_h284_r4_q80.jpg","seo_url":"/advice/rent/noisy-neighbors-apartment-sound-tricks/","post_id":"417523","attribution":{},"img_alt":"noisy-upstairs-neighbors","title":"How to Deal With Noisy Upstairs Neighbors: 8 Fiercely Clever Tricks","img_src":"https://na.rdcpix.com/7d8d601b9a27c884735d73623a09653bw-c306071180rd-w300_h300_r4_q80.jpg"}],"tags":["bad neighbors","landlord","renter's rights"],"tag_details":[{"name":"bad neighbors","id":298,"slug":"bad-neighbors"},{"name":"landlord","id":7505,"slug":"landlord"},{"name":"renter's rights","id":3797,"slug":"renters-rights-2"}],"seo_focus":"Landlord or Ren","seo_title":"Landlord or Renter: Who Has To Handle Noisy Neighbors?","seo_desc":"We've all been there: fuming while a neighbor shatters the silence with some loud racket. So whose job is it to curb the commotion, yours or your landlord's?","attribution":null,"sponsored_content":"false","bar_chart_details":{"title":"","data":null},"pie_chart_details":{"title":"","data":null},"image_gallery_data":[{"img_url":null,"caption":null,"credit":null}],"exclude_in_rss_feed":false,"delay_in_rss_feeds":"2022-08-21T21:30:13+00:00","created":"2022-02-23T22:13:51.373Z","location_details":null},{"post_id":"95877","canonical":"https://www.realtor.com/advice/rent/how-often-can-my-landlord-show-my-apartment-2/","seo_url":"/advice/rent/how-often-can-my-landlord-show-my-apartment-2/","title":"Notice of Entry, and Other Rules Your Landlord Needs to Follow","status":"publish","body":"\u003cp\u003eWith a rental lease set to expire, most landlords want to show the apartment as often as possible, which means they'll need a notice of entry to get into your place. They'll beeager to find new renters, but the law states they can't justunlock your door at any time and pop in for a visit. They also aren't allowed to show the apartmentsomany times that it creates a nuisance for you and disrupts your life.\u003c/p\u003e\n\u003cp\u003eIf you're a renter, read on for the rules of landlord entry, so you know what to expect.\u003c/p\u003e\n\u003ch2 id=\"landlord-notice-of-entry\"\u003eLandlord notice of entry\u003c/h2\u003e\n\u003cp\u003eLandlords are legally obligated to provide a renter with notice that they'll be entering the premisesfor\u003cem\u003eany\u003c/em\u003ereason. Whether that's to show the property to a potential renter or to fix aleaky faucet, the law is clear: Legal tenants have the right to quiet enjoyment of their home.\u003c/p\u003e\n\u003cp\u003e\"The landlord must provide reasonable notice in writing (generally, 24 hours) of his intent to enterand to do itonly during normal business hours,\" explains\u003cstrong\u003eBryan Zuetel\u003c/strong\u003e, a Realtor and real estate attorney from Irvine, CA.If a tenant is home and consents to entry, the 24-hour notice can be waived. Then again, it is OK for a tenant to deny entry to their landlord if they show up unannounced.\u003c/p\u003e\n\u003cp\u003eIf the landlord intends to rent or sell the property to someone new, they may ask you to allow additional showings, Zuetel says. And depending on what's spelled out in yourlease agreement, you may have to comply. \"For example, under certain conditions, a landlord may require that the tenant permit a weekend open house during regular business hours, and the landlord may provide oral notice of entry to the tenant,\" he says.\u003c/p\u003e\n\u003cp\u003eSo pull out the paperwork you signed if you're worried that your landlord is crossing the line. Landlords who are following those guidelines are probably in the clear.\u003c/p\u003e\n\u003ch2 id=\"how-often-can-a-landlord-show-an-apartment\"\u003eHow often can alandlord show anapartment?\u003c/h2\u003e\n\u003cp\u003eRental law does not specifically stipulate a maximum number of timesa landlord is allowed to show an apartment to prospective tenants. It does, however, provide some cover for tenants. \"The landlord may not abuse the right of access, or use it to harass the tenant,\" Zuetel explains.\u003c/p\u003e\n\u003cp\u003eThat might sound vague, but if you do feel like your landlord is abusing the right of access and bothering you too often, you should try talking to them first, before calling an attorney. \"Let themknow that you are feeling stressed fromall the showings and ask for a break for a few daysthat seems more than reasonable,\" says\u003cstrong\u003eHolly Pasut\u003c/strong\u003e, a Realtor with Hines and Associates Realty in Cornelius, NC. If that doesn't help, you can then seek legal action.\u003c/p\u003e\n\u003cp\u003eHere's more on the rights of tenants who find out their \u003ca href=\"https://www.realtor.com/advice/rent/my-landlord-is-selling/\" target=\"_blank\" rel=\"noopener noreferrer\"\u003elandlord is selling their house\u003c/a\u003e.\u003c/p\u003e\n","modified":"2022-08-18T00:47:28+00:00","published":"2022-08-16T11:00:53+00:00","slug":"how-often-can-my-landlord-show-my-apartment-2","excerpt":"Q: How often can my landlord show our apartment? While we get 24 hour notice, and it is between 8 and 5, it has been shown more than 25 times in the last month and a half. This past week has had showings every day. I heard about the \"quiet enjoyment\" law, and was wondering if this is a proper time t","author":{"ID":467,"name":"Jeanne Sager","slug":"jsager","description":"Jeanne Sager has strung words together for the New York Times, Vice, and more. She writes and photographs people from her home in upstate New York.","twitter_contact":"JeanneSager","display_name":"Jeanne Sager"},"category":{"name":"Rent","parent":"Advice"},"featured_image":{"source_thumbnail_retina":"https://na.rdcpix.com/1060405474/d6e5a494151545c7094de494ed374685w-c0rd-w290_h164_r4_q80.jpg","source_mobile":"https://na.rdcpix.com/1060405474/d6e5a494151545c7094de494ed374685w-c0rd-w300_h300_r4_q80.jpg","source_thumbnail":"https://na.rdcpix.com/1060405474/d6e5a494151545c7094de494ed374685w-c0rd-w145_h81_r4_q80.jpg","alt_text":"knocking-on-door","source_desktop":"https://na.rdcpix.com/1060405474/d6e5a494151545c7094de494ed374685w-c0rd-w628_h354_r4_q80.jpg","source_mobile_retina":"https://na.rdcpix.com/1060405474/d6e5a494151545c7094de494ed374685w-c0rd-w506_h284_r4_q80.jpg","source_ngi":"http://na.rdcpix.com/1060405474/d6e5a494151545c7094de494ed374685w-c0xd-w640_h480_q80.jpg","ID":"399013","source_desktop_retina":"https://na.rdcpix.com/1060405474/d6e5a494151545c7094de494ed374685w-c0rd-w1024_h1024_r4_q80.jpg","credit":"KatarzynaBialasiewicz/iStock","type":"image"},"tags":["apartment","landlord-tenant problems","moving","rentals","renting","updates"],"seo_focus":"notice of entry","seo_title":"Notice of Entry and Other Rules Your Landlord Needs to Follow","seo_desc":"Landlords may be eager to find new renters, but they can't just unlock your door at any time and pop in for a visitthey need a notice of entry.","attribution":null,"created":"2016-08-30T21:09:55.244Z","sponsored_content":"false","related":[{"img_src_retina":"https://na.rdcpix.com/020f697d45c56108aada5682259c7415w-c3223642232rd-w506_h284_r4_q80.jpg","seo_url":"/advice/buy/phrases-home-buyers-should-never-include-in-offer-letter/","post_id":"502807","attribution":{},"img_alt":"These Phrases Could Doom Your Offer Letter","title":"6 Fatal Phrases Home Buyers Should Never Include in Their Offer LetterEver","img_src":"https://na.rdcpix.com/020f697d45c56108aada5682259c7415w-c3223642232rd-w300_h300_r4_q80.jpg"},{"img_src_retina":"https://na.rdcpix.com/811cb7f4c2e954ea521cbdec9e120da8w-c2996724006rd-w506_h284_r4_q80.jpg","seo_url":"/advice/buy/things-to-do-before-making-an-offer-on-a-house/","post_id":"571018","attribution":{},"img_alt":"found-the-one-01","title":"Found The One? 10 Things To Do Before Making an Offer on a House","img_src":"https://na.rdcpix.com/811cb7f4c2e954ea521cbdec9e120da8w-c2996724006rd-w300_h300_r4_q80.jpg"},{"img_src_retina":"https://na.rdcpix.com/5d80e6bf30c7fb4f6fc8b160e5f95842w-c4234753987rd-w506_h284_r4_q80.jpg","seo_url":"/advice/sell/real-estate-commission-explained/","post_id":"197841","attribution":{},"img_alt":"realtor-fees-commission-v2","title":"The Real Estate Commission: How Much Are Realtor Fees?","img_src":"https://na.rdcpix.com/5d80e6bf30c7fb4f6fc8b160e5f95842w-c4234753987rd-w300_h300_r4_q80.jpg"}],"tags_internal":["SEO"],"pie_chart_details":{"data":null,"title":""},"hide_mid_ad":"No","bar_chart_details":{"data":null,"title":""},"hide_viglink":"Yes","location_details":null,"hide_publish_date":"No","tag_details":[{"name":"apartment","id":7699,"slug":"apartment"},{"name":"landlord-tenant problems","id":2463,"slug":"landlord-tenant-problems"},{"name":"moving","id":3030,"slug":"moving"},{"name":"rentals","id":3794,"slug":"rentals"},{"name":"renting","id":3799,"slug":"renting"},{"name":"updates","id":12061,"slug":"updates"}],"image_gallery_data":[{"img_url":null,"caption":null,"credit":null}],"map_details":"MAP DATA NOT AVAILABLEArray Count","exclude_in_rss_feed":true,"delay_in_rss_feeds":"2022-08-16T11:00:53+00:00"}],"searchError":null,"popularSearches":null,"nearbyAreas":{},"propTypesModuleResults":null,"topRealEstateResults":{"title":"Apartments for Rent in Florida","top_markets":[{"url":"https://www.realtor.com/apartments/Miami_FL","city":"Miami Apartments for Rent","text":"Miami Apartments for Rent"},{"url":"https://www.realtor.com/apartments/Jacksonville_FL","city":"Jacksonville Apartments for Rent","text":"Jacksonville Apartments for Rent"},{"url":"https://www.realtor.com/apartments/Orlando_FL","city":"Orlando Apartments for Rent","text":"Orlando Apartments for Rent"},{"url":"https://www.realtor.com/apartments/Tampa_FL","city":"Tampa Apartments for Rent","text":"Tampa Apartments for Rent"},{"url":"https://www.realtor.com/apartments/Naples_FL","city":"Naples Apartments for Rent","text":"Naples Apartments for Rent"},{"url":"https://www.realtor.com/apartments/Miami-Beach_FL","city":"Miami Beach Apartments for Rent","text":"Miami Beach Apartments for Rent"},{"url":"https://www.realtor.com/apartments/Fort-Lauderdale_FL","city":"Fort Lauderdale Apartments for Rent","text":"Fort Lauderdale Apartments for Rent"},{"url":"https://www.realtor.com/apartments/West-Palm-Beach_FL","city":"West Palm Beach Apartments for Rent","text":"West Palm Beach Apartments for Rent"},{"url":"https://www.realtor.com/apartments/Boca-Raton_FL","city":"Boca Raton Apartments for Rent","text":"Boca Raton Apartments for Rent"},{"url":"https://www.realtor.com/apartments/Hollywood_FL","city":"Hollywood Apartments for Rent","text":"Hollywood Apartments for Rent"},{"url":"https://www.realtor.com/apartments/Sarasota_FL","city":"Sarasota Apartments for Rent","text":"Sarasota Apartments for Rent"},{"url":"https://www.realtor.com/apartments/Delray-Beach_FL","city":"Delray Beach Apartments for Rent","text":"Delray Beach Apartments for Rent"},{"url":"https://www.realtor.com/apartments/Doral_FL","city":"Doral Apartments for Rent","text":"Doral Apartments for Rent"},{"url":"https://www.realtor.com/apartments/Sunny-Isles-Beach_FL","city":"Sunny Isles Beach Apartments for Rent","text":"Sunny Isles Beach Apartments for Rent"},{"url":"https://www.realtor.com/apartments/Fort-Myers_FL","city":"Fort Myers Apartments for Rent","text":"Fort Myers Apartments for Rent"},{"url":"https://www.realtor.com/apartments/Pompano-Beach_FL","city":"Pompano Beach Apartments for Rent","text":"Pompano Beach Apartments for Rent"},{"url":"https://www.realtor.com/apartments/Clearwater_FL","city":"Clearwater Apartments for Rent","text":"Clearwater Apartments for Rent"},{"url":"https://www.realtor.com/apartments/Cape-Coral_FL","city":"Cape Coral Apartments for Rent","text":"Cape Coral Apartments for Rent"},{"url":"https://www.realtor.com/apartments/Kissimmee_FL","city":"Kissimmee Apartments for Rent","text":"Kissimmee Apartments for Rent"},{"url":"https://www.realtor.com/apartments/Pembroke-Pines_FL","city":"Pembroke Pines Apartments for Rent","text":"Pembroke Pines Apartments for Rent"},{"url":"https://www.realtor.com/apartments/Bradenton_FL","city":"Bradenton Apartments for Rent","text":"Bradenton Apartments for Rent"},{"url":"https://www.realtor.com/apartments/Plantation_Broward-County_FL","city":"Plantation Apartments for Rent","text":"Plantation Apartments for Rent"},{"url":"https://www.realtor.com/apartments/Hallandale-Beach_FL","city":"Hallandale Beach Apartments for Rent","text":"Hallandale Beach Apartments for Rent"},{"url":"https://www.realtor.com/apartments/Boynton-Beach_FL","city":"Boynton Beach Apartments for Rent","text":"Boynton Beach Apartments for Rent"},{"url":"https://www.realtor.com/apartments/Aventura_FL","city":"Aventura Apartments for Rent","text":"Aventura Apartments for Rent"},{"url":"https://www.realtor.com/apartments/Coral-Springs_FL","city":"Coral Springs Apartments for Rent","text":"Coral Springs Apartments for Rent"},{"url":"https://www.realtor.com/apartments/Vero-Beach_FL","city":"Vero Beach Apartments for Rent","text":"Vero Beach Apartments for Rent"},{"url":"https://www.realtor.com/apartments/Wellington_FL","city":"Wellington Apartments for Rent","text":"Wellington Apartments for Rent"}]}},"userAgent":"Mozilla/5.0 (Windows NT 10.0; Win64; x64; rv:104.0) Gecko/20100101 Firefox/104.0","jsonld":{"schemaTypes":["BreadcrumbList","WebPage","SingleFamilyResidence","Event","Dataset","ItemPage","ViewAction","Product"],"content":{"silos":"SRP","url":"/apartments/Pinellas-County_FL/type-single-family-home/price-na-2150/sqft-1250/available-na-08_31_2022","inLanguage":"EN-US","area_type":"county","filters":{"price_reduced":false},"breadcrumbUrl":{"state":"www.realtor.com/realestateandhomes-search/Florida/overview","county":"www.realtor.com/apartments/Pinellas-County_FL"},"location":{"state_code":"FL","state":"Florida","county":"Pinellas County"},"results":[{"property_id":"6797639155","prop_type":"single_family","address":{"city":"Oldsmar","coordinate":{"lat":28.074085,"lon":-82.701507},"country":"USA","line":"70 James Ct","postal_code":"34677","state":"Florida","state_code":"FL","street_direction":null,"street_name":"James","street_number":"70","street_post_direction":null,"street_suffix":"Ct","unit":null},"primary_photo":{"description":null,"href":"https://ap.rdcpix.com/6736bd0d7f3bb57ac5a2072429473068l-m2141201132s.jpg","type":null},"open_houses":null,"source":{"agents":null,"id":"TURN","listing_id":"425864","community_id":null,"name":"TenantTurner","type":"unit_rental"},"list_price":2150,"permalink":"70-James-Ct_Oldsmar_FL_34677_M67976-39155"},{"property_id":"6810648730","prop_type":"single_family","address":{"city":"Saint Petersburg","coordinate":{"lat":27.809367,"lon":-82.725194},"country":"USA","line":"6425 41st Ave N","postal_code":"33709","state":"Florida","state_code":"FL","street_direction":null,"street_name":"41st","street_number":"6425","street_post_direction":"N","street_suffix":"Ave","unit":null},"primary_photo":{"description":null,"href":"https://ap.rdcpix.com/c4e3ad316bc8522e5e59713235dac561l-m3722514045s.jpg","type":null},"open_houses":null,"source":{"agents":null,"id":"AVAL","listing_id":"60487024","community_id":null,"name":"Avail","type":"unit_rental"},"list_price":2050,"permalink":"6425-41st-Ave-N_St-Petersburg_FL_33709_M68106-48730"},{"property_id":"5486108700","prop_type":"single_family","address":{"city":"Saint Petersburg","coordinate":{"lat":27.756181,"lon":-82.642969},"country":"USA","line":"720 Newton Ave S","postal_code":"33701","state":"Florida","state_code":"FL","street_direction":null,"street_name":"Newton","street_number":"720","street_post_direction":"S","street_suffix":"Ave","unit":null},"primary_photo":{"description":null,"href":"https://ap.rdcpix.com/2ae84b0a4858a6e994ea1338c7c8d6b8l-m1243389498s.jpg","type":null},"open_houses":null,"source":{"agents":[{"agent_id":"261545377","agent_name":"John Hatcherian"}],"id":"ORFL","listing_id":"T3395156","community_id":null,"name":"StellarMLS","type":"mls"},"list_price":2100,"permalink":"720-Newton-Ave-S_St-Petersburg_FL_33701_M54861-08700"},{"property_id":"5562191019","prop_type":"single_family","address":{"city":"Saint Petersburg","coordinate":{"lat":27.732677,"lon":-82.643702},"country":"USA","line":"3931 Grove St S","postal_code":"33705","state":"Florida","state_code":"FL","street_direction":null,"street_name":"Grove","street_number":"3931","street_post_direction":"S","street_suffix":"St","unit":null},"primary_photo":{"description":null,"href":"https://ap.rdcpix.com/77069f1dcec2d8a6631c42d0db625f9el-m3992613812s.jpg","type":null},"open_houses":null,"source":{"agents":[{"agent_id":"727009217","agent_name":"Michael O Brien"}],"id":"ORFL","listing_id":"T3396122","community_id":null,"name":"StellarMLS","type":"mls"},"list_price":1950,"permalink":"3931-Grove-St-S_St-Petersburg_FL_33705_M55621-91019"},{"property_id":"6766539153","prop_type":"single_family","address":{"city":"Holiday","coordinate":{"lat":28.175857,"lon":-82.77008},"country":"USA","line":"1138 Jambalana Dr","postal_code":"34691","state":"Florida","state_code":"FL","street_direction":null,"street_name":"Jambalana","street_number":"1138","street_post_direction":null,"street_suffix":"Dr","unit":null},"primary_photo":{"description":null,"href":"https://ap.rdcpix.com/a4aaf3e81b9033d564b611f4b966c102l-m3319241237s.jpg","type":null},"open_houses":null,"source":{"agents":null,"id":"RXUN","listing_id":"7635647","community_id":null,"name":"RentlinxUnits","type":"unit_rental"},"list_price":2095,"permalink":"1138-Jambalana-Dr_Holiday_FL_34691_M67665-39153"},{"property_id":"6064560595","prop_type":"single_family","address":{"city":"Holiday","coordinate":{"lat":28.184348,"lon":-82.719149},"country":"USA","line":"5740 Bacardi Ct","postal_code":"34690","state":"Florida","state_code":"FL","street_direction":null,"street_name":"Bacardi","street_number":"5740","street_post_direction":null,"street_suffix":"Ct","unit":null},"primary_photo":{"description":null,"href":"https://ap.rdcpix.com/36ddd2f92edce94fcb707299934ac0e6l-m4039978494s.jpg","type":null},"open_houses":null,"source":{"agents":null,"id":"INVH","listing_id":"e20bace6-6b02-494c-be29-891716d0e89f","community_id":null,"name":"InvitationHomes","type":"unit_rental"},"list_price":2045,"permalink":"5740-Bacardi-Ct_Holiday_FL_34690_M60645-60595"},{"property_id":"6965003042","prop_type":"single_family","address":{"city":"New Port Richey","coordinate":{"lat":28.225943,"lon":-82.677692},"country":"USA","line":"8247 Tahr Ave","postal_code":"34653","state":"Florida","state_code":"FL","street_direction":null,"street_name":"Tahr","street_number":"8247","street_post_direction":null,"street_suffix":"Ave","unit":null},"primary_photo":{"description":null,"href":"https://ap.rdcpix.com/c9d84ac87f165e1ce4a67f645e76e871l-m3515585499s.jpg","type":null},"open_houses":null,"source":{"agents":null,"id":"PROG","listing_id":"330447","community_id":null,"name":"ProgressResidential","type":"unit_rental"},"list_price":2085,"permalink":"8247-Tahr-Ave_New-Port-Richey_FL_34653_M69650-03042"},{"property_id":"9115967790","prop_type":"single_family","address":{"city":"Holiday","coordinate":{"lat":28.209078,"lon":-82.715093},"country":"USA","line":"3426 Madison St Unit 1","postal_code":"34690","state":"Florida","state_code":"FL","street_direction":null,"street_name":"Madison","street_number":"3426","street_post_direction":null,"street_suffix":"St","unit":"Unit 1"},"primary_photo":{"description":null,"href":"https://ap.rdcpix.com/711eb1db92f8e9c668c845a162bb2fccl-m483811657s.jpg","type":null},"open_houses":null,"source":{"agents":null,"id":"MYND","listing_id":"ba7od73dn2adkeel","community_id":null,"name":"Mynd.co","type":"unit_rental"},"list_price":1945,"permalink":"3426-Madison-St-1_Holiday_FL_34690_M91159-67790"},{"property_id":"9799715409","prop_type":"single_family","address":{"city":"Holiday","coordinate":{"lat":28.175857,"lon":-82.77008},"country":"USA","line":"1138 Jambalana Dr Unit 1","postal_code":"34691","state":"Florida","state_code":"FL","street_direction":null,"street_name":"Jambalana","street_number":"1138","street_post_direction":null,"street_suffix":"Dr","unit":"Unit 1"},"primary_photo":{"description":null,"href":"https://ap.rdcpix.com/12087982c510778c0f8b7b9fac9c8983l-m404987605s.jpg","type":null},"open_houses":null,"source":{"agents":null,"id":"MYND","listing_id":"nfjmd0tdfjocc8ha","community_id":null,"name":"Mynd.co","type":"unit_rental"},"list_price":2095,"permalink":"1138-Jambalana-Dr-1_Holiday_FL_34691_M97997-15409"},{"property_id":"6069502444","prop_type":"single_family","address":{"city":"New Port Richey","coordinate":{"lat":28.235472,"lon":-82.71419},"country":"USA","line":"5248 School Rd","postal_code":"34653","state":"Florida","state_code":"FL","street_direction":null,"street_name":"School","street_number":"5248","street_post_direction":null,"street_suffix":"Rd","unit":null},"primary_photo":{"description":null,"href":"https://ap.rdcpix.com/8c88a499bb64d4ea491b22daca03befdl-m2663935877s.jpg","type":null},"open_houses":null,"source":{"agents":[{"agent_id":"261546013","agent_name":"Nancy Greenwood"}],"id":"ORFL","listing_id":"U8170001","community_id":null,"name":"StellarMLS","type":"mls"},"list_price":1775,"permalink":"5248-School-Rd_New-Port-Richey_FL_34653_M60695-02444"},{"property_id":"6119092375","prop_type":"single_family","address":{"city":"Holiday","coordinate":{"lat":28.204119,"lon":-82.729575},"country":"USA","line":"5116 Plantation Dr","postal_code":"34690","state":"Florida","state_code":"FL","street_direction":null,"street_name":"Plantation","street_number":"5116","street_post_direction":null,"street_suffix":"Dr","unit":null},"primary_photo":{"description":null,"href":"https://ap.rdcpix.com/2b8dbe746a28c11785bb66204eb6a1f5l-m4205770613s.jpg","type":null},"open_houses":null,"source":{"agents":[{"agent_id":"283513033","agent_name":"Donald Arnold"}],"id":"ORFL","listing_id":"T3391464","community_id":null,"name":"StellarMLS","type":"mls"},"list_price":2050,"permalink":"5116-Plantation-Dr_Holiday_FL_34690_M61190-92375"},{"property_id":"5617071157","prop_type":"single_family","address":{"city":"Holiday","coordinate":{"lat":28.188025,"lon":-82.742766},"country":"USA","line":"4311 Bonita Rd","postal_code":"34691","state":"Florida","state_code":"FL","street_direction":null,"street_name":"Bonita","street_number":"4311","street_post_direction":null,"street_suffix":"Rd","unit":null},"primary_photo":{"description":null,"href":"https://ap.rdcpix.com/1aa142890cebe979fa3aece2e45ec50al-m2435005461s.jpg","type":null},"open_houses":null,"source":{"agents":[{"agent_id":"260043004","agent_name":"Nehad Alhassan"}],"id":"ORFL","listing_id":"U8173050","community_id":null,"name":"StellarMLS","type":"mls"},"list_price":1550,"permalink":"4311-Bonita-Rd_Holiday_FL_34691_M56170-71157"},{"property_id":"5521544025","prop_type":"single_family","address":{"city":"New Port Richey","coordinate":{"lat":28.256442,"lon":-82.702549},"country":"USA","line":"6809 Crossbow Ln","postal_code":"34653","state":"Florida","state_code":"FL","street_direction":null,"street_name":"Crossbow","street_number":"6809","street_post_direction":null,"street_suffix":"Ln","unit":null},"primary_photo":{"description":null,"href":"https://ap.rdcpix.com/120d2ae442160be585e6c81598cfdfbal-m4244818189s.jpg","type":null},"open_houses":null,"source":{"agents":null,"id":"AVAL","listing_id":"60482018","community_id":null,"name":"Avail","type":"unit_rental"},"list_price":1950,"permalink":"6809-Crossbow-Ln_New-Port-Richey_FL_34653_M55215-44025"}],"variableMeasured":["Median List Price $419.9k","Median Days In Market 45","Median Price per sq.ft $301","Sale/List Price 89.30697785186949%","Active Listings 2743","Median Rent $2.21k"],"schools":["Cypress Woods Elementary School","Sutherland Elementary School","Curtis Fundamental Elementary School","Pasadena Fundamental Elementary School","Tarpon Springs Fundamental Elementary School","Brooker Creek Elementary School","Plato Academy Charter School","Anona Elementary School","Orange Grove Elementary School","Plato Academy Charter School","East Lake Middle School Academy Of Engineering","Plato Academy Palm Harbor Charter School","Academie Da Vinci Charter School","Madeira Beach Fundamental K-8","Clearwater Fundamental Middle School","Discovery Academy Of Science Charter School","Plato Academy Of St.Petersburg","Plato Seminole","St. Petersburg Collegiate High School","Osceola Fundamental High School","Palm Harbor University High School","East Lake High School","Hospital/Homebound","Pinellas Virtual Franchise","St. Petersburg High School","Northeast High School","Largo High School","Shorecrest Preparatory School","Keswick Christian School","Northside Christian School","Clearwater Central Catholic High School","Lutheran Church Of The Cross Day School","St Cecelia Interparochial School","Calvary Christian High School","St Petersburg Christian School","Canterbury School of Florida - Knowlton Campus"],"deep_links":{"ios":"ios-app://336698281/move-rdc/www.realtor.com/apartments/Pinellas-County_FL","android":"android-app://com.move.realtor/move-rdc/www.realtor.com/apartments/Pinellas-County_FL"}}},"optimizely":{"lastUpdated":1661300927895,"userId":"9200165e-765c-46ad-a99e-68a2f142babe","attributes":{"environment":"production","$opt_user_agent":"Mozilla/5.0 (Windows NT 10.0; Win64; x64; rv:104.0) Gecko/20100101 Firefox/104.0","split":"c","split_tcv":"118"}},"split":"c","viewId":"ddfbf64a-df1d-4c93-a1d8-b2f9182a8b1e","key":"ddfbf64a-df1d-4c93-a1d8-b2f9182a8b1e","hostname":"www.realtor.com"},"gnavLocation":null,"optimizely":{"lastUpdated":1661300927895,"userId":"9200165e-765c-46ad-a99e-68a2f142babe","attributes":{"environment":"production","$opt_user_agent":"Mozilla/5.0 (Windows NT 10.0; Win64; x64; rv:104.0) Gecko/20100101 Firefox/104.0","split":"c","split_tcv":"118"}},"userAgent":"Mozilla/5.0 (Windows NT 10.0; Win64; x64; rv:104.0) Gecko/20100101 Firefox/104.0","viewId":"c6d75c74-5cc4-4c64-b6aa-2bd6223f80f2","cookies":{},"query":{"0":"/type-single-family-home/price-na-2150/sqft-1250/available-na-08_31_2022","searchSlug":"Pinellas-County_FL"},"hostname":"www.realtor.com"},"page":"/apartments","query":{"0":"/type-single-family-home/price-na-2150/sqft-1250/available-na-08_31_2022","searchSlug":"Pinellas-County_FL"},"buildId":"Ch-8sR6324Ub6qDf1TRCl","assetPrefix":"/assets/rentals/prod/ef0eb34","runtimeConfig":{"appVersion":"rdc-x-rentals-rc/v4.60.0","awsAccount":"production"},"isFallback":false,"dynamicIds":["g3TI","QE6K","1RLb","/E+z","8NmS","t+S1"],"customServer":true,"gip":true,"appGip":true}