{"props":{"pageProps":{"user":{"allProperties":{}},"srpData":{"query":{"0":"/type-single-family-home/price-na-2150/sqft-1250/available-na-08_31_2022","searchSlug":"Sarasota-County_FL"},"variables":{"query":{"location":"Sarasota County, FL","property_status":"for_rent","filters":{"prop_type":["single-family-home"],"price":{"max":2150},"sqft":{"min":1250,"max":null},"move_in_date":{"min":"","max":"2022-08-31"},"locations":[]},"sort":[],"boundary":null,"discovery_mode":false},"limit":43,"offset":0,"zohoQuery":{"geo":{"area_type":"county","_id":"county:fl_sarasota","_score":0.878,"county":"Sarasota County","state_code":"FL","country":"USA","centroid":{"lon":-82.3658351,"lat":27.1843855},"slug_id":"Sarasota-County_FL","geo_id":"949c39e1-7408-5496-8cb9-6e384a2753e8"},"silo":"search_result_page","location":"Sarasota County, FL","property_status":"for_rent","filters":{"prop_type":["single-family-home"],"price":{"max":2150},"sqft":{"min":1250,"max":null},"move_in_date":{"min":"","max":"2022-08-31"}}},"medianPriceSlug":"sarasota-county_fl","sort":[{"field":"completeness","direction":"desc"},{"field":"photo_count","direction":"desc"}]},"searchSlug":"Sarasota-County_FL","filterPathSpec":"/type-single-family-home/price-na-2150/sqft-1250/available-na-08_31_2022","geo":{"area_type":"county","_id":"county:fl_sarasota","_score":0.878,"county":"Sarasota County","state_code":"FL","country":"USA","centroid":{"lon":-82.3658351,"lat":27.1843855},"slug_id":"Sarasota-County_FL","geo_id":"949c39e1-7408-5496-8cb9-6e384a2753e8"},"userAgent":"Mozilla/5.0 (Windows NT 10.0; Win64; x64; rv:104.0) Gecko/20100101 Firefox/104.0","srpCriteriaCookie":{"pg":1,"locSlug":"Sarasota-County_FL","sprefix":"/apartments","typ":"1","mnp":"","mxp":2150,"sqft":1250,"mnmid":"","mxmid":"2022-08-31","county":"Sarasota County","state_code":"FL","area_type":"county","search_type":"county","county_needed_for_uniq":false,"state_id":"FL","lat":27.1843855,"long":-82.3658351,"loc":"Sarasota County, FL"},"filterValues":{"type":{"value":"single-family-home"},"price":{"min":"","max":2150},"sqft":{"min":1250},"available":{"min":"","max":"2022-08-31"},"move_in_date":{"min":"","max":"2022-08-31"}},"isListView":true,"isListVisible":true,"isClustersVisible":false,"pageNumber":1,"searchResults":{"geo":{"parents":[{"geo_type":"state","slug_id":"Florida","name":"Florida"}],"geo_statistics":{"market_trends":{"active_listing_count":1534,"rental_listing_price":2883,"listing_price_sqft":298,"listing_price":417000,"age_days":49,"median_sold_price":416400,"month_to_month":{"active_rental_listing_count_percent_change":5.83}}},"recommended_cities":{"geos":[{"city":"Sarasota","state_code":"FL","geo_type":"city","slug_id":"Sarasota_FL","geo_statistics":{"housing_market":{"median_rent_price":2871}}},{"city":"Bradenton","state_code":"FL","geo_type":"city","slug_id":"Bradenton_FL","geo_statistics":{"housing_market":{"median_rent_price":2500}}},{"city":"Port Charlotte","state_code":"FL","geo_type":"city","slug_id":"Port-Charlotte_FL","geo_statistics":{"housing_market":{"median_rent_price":2695}}},{"city":"North Port","state_code":"FL","geo_type":"city","slug_id":"North-Port_FL","geo_statistics":{"housing_market":{"median_rent_price":2475}}},{"city":"Venice","state_code":"FL","geo_type":"city","slug_id":"Venice_FL","geo_statistics":{"housing_market":{"median_rent_price":3000}}},{"city":"Englewood","state_code":"FL","geo_type":"city","slug_id":"Englewood_FL","geo_statistics":{"housing_market":{"median_rent_price":3750}}},{"city":"North Venice","state_code":"FL","geo_type":"city","slug_id":"North-Venice_FL","geo_statistics":{"housing_market":{"median_rent_price":3500}}},{"city":"Nokomis","state_code":"FL","geo_type":"city","slug_id":"Nokomis_FL","geo_statistics":{"housing_market":{"median_rent_price":3625}}},{"city":"Braden River","state_code":"FL","geo_type":"city","slug_id":"Braden-River_FL","geo_statistics":{"housing_market":{"median_rent_price":2500}}},{"city":"Lake Suzy","state_code":"FL","geo_type":"city","slug_id":"Lake-Suzy_FL","geo_statistics":{"housing_market":{"median_rent_price":null}}},{"city":"Arcadia","state_code":"FL","geo_type":"city","slug_id":"Arcadia_FL","geo_statistics":{"housing_market":{"median_rent_price":null}}},{"city":"Longboat Key","state_code":"FL","geo_type":"city","slug_id":"Longboat-Key_FL","geo_statistics":{"housing_market":{"median_rent_price":5000}}},{"city":"Sidell","state_code":"FL","geo_type":"city","slug_id":"Sidell_FL","geo_statistics":{"housing_market":{"median_rent_price":null}}},{"city":"Siesta Key","state_code":"FL","geo_type":"city","slug_id":"Siesta-Key_FL","geo_statistics":{"housing_market":{"median_rent_price":4200}}},{"city":"South Venice","state_code":"FL","geo_type":"city","slug_id":"South-Venice_FL","geo_statistics":{"housing_market":{"median_rent_price":2787}}},{"city":"Sarasota Springs","state_code":"FL","geo_type":"city","slug_id":"Sarasota-Springs_FL","geo_statistics":{"housing_market":{"median_rent_price":2025}}},{"city":"University Park","state_code":"FL","geo_type":"city","slug_id":"University-Park_FL","geo_statistics":{"housing_market":{"median_rent_price":4088}}},{"city":"Osprey","state_code":"FL","geo_type":"city","slug_id":"Osprey_FL","geo_statistics":{"housing_market":{"median_rent_price":3500}}},{"city":"Gulf Gate Estates","state_code":"FL","geo_type":"city","slug_id":"Gulf-Gate-Estates_FL","geo_statistics":{"housing_market":{"median_rent_price":3100}}},{"city":"Fruitville","state_code":"FL","geo_type":"city","slug_id":"Fruitville_FL","geo_statistics":{"housing_market":{"median_rent_price":2595}}}]},"recommended_neighborhoods":{"geos":[{"neighborhood":"Plantation","city":"Venice","state_code":"FL","geo_type":"neighborhood","slug_id":"Plantation_Venice_FL","geo_statistics":{"housing_market":{"median_rent_price":null}}},{"neighborhood":"Old Englewood Village","city":"Englewood","state_code":"FL","geo_type":"neighborhood","slug_id":"Old-Englewood-Village_Englewood_FL","geo_statistics":{"housing_market":{"median_rent_price":null}}},{"neighborhood":"Gran Paradiso","city":"Venice","state_code":"FL","geo_type":"neighborhood","slug_id":"Gran-Paradiso_Venice_FL","geo_statistics":{"housing_market":{"median_rent_price":2900}}},{"neighborhood":"Arlington Park","city":"Sarasota","state_code":"FL","geo_type":"neighborhood","slug_id":"Arlington-Park_Sarasota_FL","geo_statistics":{"housing_market":{"median_rent_price":null}}},{"neighborhood":"Park East","city":"Sarasota","state_code":"FL","geo_type":"neighborhood","slug_id":"Park-East_Sarasota_FL","geo_statistics":{"housing_market":{"median_rent_price":null}}},{"neighborhood":"Bayou Oaks","city":"Sarasota","state_code":"FL","geo_type":"neighborhood","slug_id":"Bayou-Oaks_Sarasota_FL","geo_statistics":{"housing_market":{"median_rent_price":null}}},{"neighborhood":"Lido Key","city":"Sarasota","state_code":"FL","geo_type":"neighborhood","slug_id":"Lido-Key_Sarasota_FL","geo_statistics":{"housing_market":{"median_rent_price":8000}}},{"neighborhood":"Indian Beach-Sapphire Shores","city":"Sarasota","state_code":"FL","geo_type":"neighborhood","slug_id":"Indian-Beach-Sapphire-Shores_Sarasota_FL","geo_statistics":{"housing_market":{"median_rent_price":null}}},{"neighborhood":"Capri Isles","city":"Venice","state_code":"FL","geo_type":"neighborhood","slug_id":"Capri-Isles_Venice_FL","geo_statistics":{"housing_market":{"median_rent_price":null}}},{"neighborhood":"Jocky Club of North Point","city":"North Port","state_code":"FL","geo_type":"neighborhood","slug_id":"Jocky-Club-of-North-Point_North-Port_FL","geo_statistics":{"housing_market":{"median_rent_price":null}}},{"neighborhood":"Heritage Oaks","city":"Sarasota","state_code":"FL","geo_type":"neighborhood","slug_id":"Heritage-Oaks_Sarasota_FL","geo_statistics":{"housing_market":{"median_rent_price":null}}},{"neighborhood":"Bent Tree Village","city":"Sarasota","state_code":"FL","geo_type":"neighborhood","slug_id":"Bent-Tree-Village_Sarasota_FL","geo_statistics":{"housing_market":{"median_rent_price":null}}},{"neighborhood":"Rosemary District","city":"Sarasota","state_code":"FL","geo_type":"neighborhood","slug_id":"Rosemary-District_Sarasota_FL","geo_statistics":{"housing_market":{"median_rent_price":2363}}},{"neighborhood":"Central Cocoanut","city":"Sarasota","state_code":"FL","geo_type":"neighborhood","slug_id":"Central-Cocoanut_Sarasota_FL","geo_statistics":{"housing_market":{"median_rent_price":null}}},{"neighborhood":"Venice Farms","city":"Venice","state_code":"FL","geo_type":"neighborhood","slug_id":"Venice-Farms_Venice_FL","geo_statistics":{"housing_market":{"median_rent_price":null}}},{"neighborhood":"Jacaranda West","city":"Venice","state_code":"FL","geo_type":"neighborhood","slug_id":"Jacaranda-West_Venice_FL","geo_statistics":{"housing_market":{"median_rent_price":null}}},{"neighborhood":"Bird Bay Golf Course","city":"Venice","state_code":"FL","geo_type":"neighborhood","slug_id":"Bird-Bay-Golf-Course_Venice_FL","geo_statistics":{"housing_market":{"median_rent_price":null}}},{"neighborhood":"Pelican Pointe","city":"Venice","state_code":"FL","geo_type":"neighborhood","slug_id":"Pelican-Pointe_Venice_FL","geo_statistics":{"housing_market":{"median_rent_price":null}}},{"neighborhood":"Lakeside Plantation","city":"North Port","state_code":"FL","geo_type":"neighborhood","slug_id":"Lakeside-Plantation_North-Port_FL","geo_statistics":{"housing_market":{"median_rent_price":null}}},{"neighborhood":"Golden Gate Point","city":"Sarasota","state_code":"FL","geo_type":"neighborhood","slug_id":"Golden-Gate-Point_Sarasota_FL","geo_statistics":{"housing_market":{"median_rent_price":null}}}]},"recommended_counties":{"geos":[{"county":"Manatee","state_code":"FL","geo_type":"county","slug_id":"Manatee-County_FL","geo_statistics":{"housing_market":{"median_rent_price":2859}}},{"county":"Hillsborough","state_code":"FL","geo_type":"county","slug_id":"Hillsborough-County_FL","geo_statistics":{"housing_market":{"median_rent_price":2200}}},{"county":"Pinellas","state_code":"FL","geo_type":"county","slug_id":"Pinellas-County_FL","geo_statistics":{"housing_market":{"median_rent_price":2213}}},{"county":"Charlotte","state_code":"FL","geo_type":"county","slug_id":"Charlotte-County_FL","geo_statistics":{"housing_market":{"median_rent_price":2695}}},{"county":"Lee","state_code":"FL","geo_type":"county","slug_id":"Lee-County_FL","geo_statistics":{"housing_market":{"median_rent_price":2585}}},{"county":"Polk","state_code":"FL","geo_type":"county","slug_id":"Polk-County_FL","geo_statistics":{"housing_market":{"median_rent_price":2100}}},{"county":"Collier","state_code":"FL","geo_type":"county","slug_id":"Collier-County_FL","geo_statistics":{"housing_market":{"median_rent_price":4250}}},{"county":"DeSoto","state_code":"FL","geo_type":"county","slug_id":"DeSoto-County_FL","geo_statistics":{"housing_market":{"median_rent_price":null}}},{"county":"Highlands","state_code":"FL","geo_type":"county","slug_id":"Highlands-County_FL","geo_statistics":{"housing_market":{"median_rent_price":1975}}},{"county":"Hardee","state_code":"FL","geo_type":"county","slug_id":"Hardee-County_FL","geo_statistics":{"housing_market":{"median_rent_price":null}}},{"county":"Hendry","state_code":"FL","geo_type":"county","slug_id":"Hendry-County_FL","geo_statistics":{"housing_market":{"median_rent_price":null}}},{"county":"Glades","state_code":"FL","geo_type":"county","slug_id":"Glades-County_FL","geo_statistics":{"housing_market":{"median_rent_price":null}}},{"county":"Indian River","state_code":"FL","geo_type":"county","slug_id":"Indian-River-County_FL","geo_statistics":{"housing_market":{"median_rent_price":2800}}},{"county":"Flagler","state_code":"FL","geo_type":"county","slug_id":"Flagler-County_FL","geo_statistics":{"housing_market":{"median_rent_price":2422}}},{"county":"Putnam","state_code":"FL","geo_type":"county","slug_id":"Putnam-County_FL","geo_statistics":{"housing_market":{"median_rent_price":1279}}},{"county":"Bradford","state_code":"FL","geo_type":"county","slug_id":"Bradford-County_FL","geo_statistics":{"housing_market":{"median_rent_price":null}}},{"county":"Seminole","state_code":"FL","geo_type":"county","slug_id":"Seminole-County_FL","geo_statistics":{"housing_market":{"median_rent_price":1903}}},{"county":"Palm Beach","state_code":"FL","geo_type":"county","slug_id":"Palm-Beach-County_FL","geo_statistics":{"housing_market":{"median_rent_price":3250}}},{"county":"Volusia","state_code":"FL","geo_type":"county","slug_id":"Volusia-County_FL","geo_statistics":{"housing_market":{"median_rent_price":2245}}},{"county":"Lake","state_code":"FL","geo_type":"county","slug_id":"Lake-County_FL","geo_statistics":{"housing_market":{"median_rent_price":2230}}}]},"recommended_zips":{"geos":[{"postal_code":"34293","geo_type":"postal_code","slug_id":"34293","geo_statistics":{"housing_market":{"median_rent_price":2937}}},{"postal_code":"33981","geo_type":"postal_code","slug_id":"33981","geo_statistics":{"housing_market":{"median_rent_price":2850}}},{"postal_code":"33953","geo_type":"postal_code","slug_id":"33953","geo_statistics":{"housing_market":{"median_rent_price":3250}}},{"postal_code":"34242","geo_type":"postal_code","slug_id":"34242","geo_statistics":{"housing_market":{"median_rent_price":5350}}},{"postal_code":"34288","geo_type":"postal_code","slug_id":"34288","geo_statistics":{"housing_market":{"median_rent_price":2400}}},{"postal_code":"34243","geo_type":"postal_code","slug_id":"34243","geo_statistics":{"housing_market":{"median_rent_price":2580}}},{"postal_code":"34231","geo_type":"postal_code","slug_id":"34231","geo_statistics":{"housing_market":{"median_rent_price":2950}}},{"postal_code":"34286","geo_type":"postal_code","slug_id":"34286","geo_statistics":{"housing_market":{"median_rent_price":2745}}},{"postal_code":"34238","geo_type":"postal_code","slug_id":"34238","geo_statistics":{"housing_market":{"median_rent_price":3450}}},{"postal_code":"34232","geo_type":"postal_code","slug_id":"34232","geo_statistics":{"housing_market":{"median_rent_price":2300}}},{"postal_code":"33954","geo_type":"postal_code","slug_id":"33954","geo_statistics":{"housing_market":{"median_rent_price":2597}}},{"postal_code":"34285","geo_type":"postal_code","slug_id":"34285","geo_statistics":{"housing_market":{"median_rent_price":2500}}},{"postal_code":"34224","geo_type":"postal_code","slug_id":"34224","geo_statistics":{"housing_market":{"median_rent_price":2500}}},{"postal_code":"34287","geo_type":"postal_code","slug_id":"34287","geo_statistics":{"housing_market":{"median_rent_price":1892}}},{"postal_code":"34202","geo_type":"postal_code","slug_id":"34202","geo_statistics":{"housing_market":{"median_rent_price":3000}}},{"postal_code":"34275","geo_type":"postal_code","slug_id":"34275","geo_statistics":{"housing_market":{"median_rent_price":3500}}},{"postal_code":"34223","geo_type":"postal_code","slug_id":"34223","geo_statistics":{"housing_market":{"median_rent_price":3600}}},{"postal_code":"34291","geo_type":"postal_code","slug_id":"34291","geo_statistics":{"housing_market":{"median_rent_price":null}}},{"postal_code":"34236","geo_type":"postal_code","slug_id":"34236","geo_statistics":{"housing_market":{"median_rent_price":3000}}},{"postal_code":"34292","geo_type":"postal_code","slug_id":"34292","geo_statistics":{"housing_market":{"median_rent_price":3300}}}]}},"home_search":{"costar_counts":{"costar_total":0,"non_costar_total":3},"count":3,"total":10,"aggregation":null,"results":[{"permalink":"7427-Cass-Cir_Sarasota_FL_34231_M57480-17901","lead_attributes":{"show_contact_an_agent":true},"branding":[{"type":"Office","photo":null,"name":null}],"price_reduced_date":"2022-08-23T01:10:56.868Z","price_reduced_amount":100,"matterport":false,"virtual_tours":[{"href":"https://www.propertypanorama.com/instaview/stellar/A4504392"}],"advertisers":[{"email":null,"fulfillment_id":null,"href":null,"mls_set":null,"name":null,"nrds_id":null,"office":{"email":"rentalservice@move.com","fulfillment_id":null,"mls_set":null,"href":null,"name":null,"phones":[{"ext":null,"number":"9415003027","primary":false,"trackable":null,"type":"primary"}]},"phones":null}],"description":{"baths":2,"baths_full":2,"baths_full_calc":2,"baths_half":null,"baths_3qtr":null,"baths_1qtr":null,"beds":2,"garage":null,"lot_sqft":null,"name":null,"sqft":1267,"sub_type":null,"type":"single_family","year_built":1965,"baths_min":null,"baths_max":null,"beds_max":null,"beds_min":null,"garage_min":null,"garage_max":null,"sqft_max":null,"sqft_min":null},"flags":{"is_pending":null,"is_deal_available":null,"is_for_rent":true,"is_garage_present":null,"is_senior_community":null,"is_new_listing":null},"href":"https://www.realtor.com/realestateandhomes-detail/7427-Cass-Cir_Sarasota_FL_34231_M57480-17901","last_price_change_amount":-100,"last_price_change_date":"2022-08-23T01:10:56.868Z","last_update_date":"2022-08-23T01:10:56Z","list_date":null,"list_price":2095,"list_price_min":null,"list_price_max":null,"listing_id":"2759840003","location":{"address":{"city":"Sarasota","coordinate":{"lat":27.247983,"lon":-82.508868},"country":"USA","line":"7427 Cass Cir","postal_code":"34231","state":"Florida","state_code":"FL","street_direction":null,"street_name":"Cass","street_number":"7427","street_post_direction":null,"street_suffix":"Cir","unit":null},"county":{"fips_code":"12115","name":"Sarasota","state_code":"FL"},"search_areas":[{"city":"gulf gate estates","state_code":"fl"},{"city":"sarasota","state_code":"fl"}]},"photo_count":14,"photos":[{"description":null,"href":"https://ap.rdcpix.com/ad6924a13b8d48c602e1e98710dac2e7l-m3366291411s.jpg","type":null,"title":null,"tags":null},{"description":null,"href":"https://ap.rdcpix.com/ad6924a13b8d48c602e1e98710dac2e7l-m3388827342s.jpg","type":null,"title":null,"tags":null},{"description":null,"href":"https://ap.rdcpix.com/ad6924a13b8d48c602e1e98710dac2e7l-m1921490644s.jpg","type":null,"title":null,"tags":null}],"pet_policy":{"cats":true,"dogs":true,"text":null},"primary_photo":{"description":null,"href":"https://ap.rdcpix.com/ad6924a13b8d48c602e1e98710dac2e7l-m3366291411s.jpg","type":null},"open_houses":null,"other_listings":{"rdc":[{"listing_id":"2759840003","status":"for_rent","primary":true},{"listing_id":"2938976815","status":"off_market","primary":null},{"listing_id":"2930632652","status":"off_market","primary":null},{"listing_id":"502420562","status":"off_market","primary":null},{"listing_id":"561312750","status":"sold","primary":null}]},"products":null,"property_history":null,"property_id":"5748017901","source":{"agents":null,"id":"RXUN","listing_id":"5258109","community_id":null,"name":"RentlinxUnits","type":"unit_rental"},"status":"for_rent","suppression_flags":{"has_suppress_list_date":true,"has_suppress_foreclosure":true},"tags":["pets_allowed","front_porch","rental_property","maintenance","shopping"],"when_indexed":"2022-08-23T05:37:11.346Z","home_photos":{"collection":[{"description":null,"href":"https://ap.rdcpix.com/ad6924a13b8d48c602e1e98710dac2e7l-m3366291411s.jpg","type":null,"title":null,"tags":null},{"description":null,"href":"https://ap.rdcpix.com/ad6924a13b8d48c602e1e98710dac2e7l-m3388827342s.jpg","type":null,"title":null,"tags":null},{"description":null,"href":"https://ap.rdcpix.com/ad6924a13b8d48c602e1e98710dac2e7l-m1921490644s.jpg","type":null,"title":null,"tags":null}],"count":3}},{"permalink":"3132-Johannesberg-Rd_North-Port_FL_34288_M55017-32176","lead_attributes":{"show_contact_an_agent":true},"branding":[{"type":"Office","photo":null,"name":null}],"price_reduced_date":"2022-08-18T00:20:35.16Z","price_reduced_amount":50,"matterport":false,"virtual_tours":[{"href":"https://www.propertypanorama.com/instaview/stellar/T3372255"}],"advertisers":[{"email":null,"fulfillment_id":null,"href":null,"mls_set":null,"name":null,"nrds_id":null,"office":{"email":"rent+413783@tenantturnermail.com","fulfillment_id":null,"mls_set":null,"href":null,"name":null,"phones":[{"ext":null,"number":"8337746323","primary":false,"trackable":null,"type":"primary"}]},"phones":null}],"description":{"baths":2,"baths_full":2,"baths_full_calc":2,"baths_half":null,"baths_3qtr":null,"baths_1qtr":null,"beds":3,"garage":null,"lot_sqft":null,"name":null,"sqft":1376,"sub_type":null,"type":"single_family","year_built":null,"baths_min":null,"baths_max":null,"beds_max":null,"beds_min":null,"garage_min":null,"garage_max":null,"sqft_max":null,"sqft_min":null},"flags":{"is_pending":null,"is_deal_available":null,"is_for_rent":true,"is_garage_present":null,"is_senior_community":null,"is_new_listing":null},"href":"https://www.realtor.com/realestateandhomes-detail/3132-Johannesberg-Rd_North-Port_FL_34288_M55017-32176","last_price_change_amount":-50,"last_price_change_date":"2022-08-18T00:20:35.16Z","last_update_date":"2022-08-17T23:03:11Z","list_date":null,"list_price":2045,"list_price_min":null,"list_price_max":null,"listing_id":"2944255469","location":{"address":{"city":"North Port","coordinate":{"lat":27.053973,"lon":-82.134684},"country":"USA","line":"3132 Johannesberg Rd","postal_code":"34288","state":"Florida","state_code":"FL","street_direction":null,"street_name":"Johannesberg","street_number":"3132","street_post_direction":null,"street_suffix":"Rd","unit":null},"county":{"fips_code":"12115","name":"Sarasota","state_code":"FL"},"search_areas":[{"city":"north port","state_code":"fl"}]},"photo_count":18,"photos":[{"description":null,"href":"https://ap.rdcpix.com/4ddd5a3fbe29b64811423508333940b5l-m2103257853s.jpg","type":null,"title":null,"tags":null},{"description":null,"href":"https://ap.rdcpix.com/4ddd5a3fbe29b64811423508333940b5l-m2512899738s.jpg","type":null,"title":null,"tags":null},{"description":null,"href":"https://ap.rdcpix.com/4ddd5a3fbe29b64811423508333940b5l-m1832071835s.jpg","type":null,"title":null,"tags":null}],"pet_policy":null,"primary_photo":{"description":null,"href":"https://ap.rdcpix.com/4ddd5a3fbe29b64811423508333940b5l-m2103257853s.jpg","type":null},"open_houses":null,"other_listings":{"rdc":[{"listing_id":"2944255469","status":"for_rent","primary":true},{"listing_id":"2942953853","status":"sold","primary":null},{"listing_id":"539608842","status":"sold","primary":null},{"listing_id":"586395126","status":"off_market","primary":null}]},"products":null,"property_history":null,"property_id":"5501732176","source":{"agents":null,"id":"TURN","listing_id":"413783","community_id":null,"name":"TenantTurner","type":"unit_rental"},"status":"for_rent","suppression_flags":{"has_suppress_list_date":true,"has_suppress_foreclosure":true},"tags":["floor_plan","rental_property"],"when_indexed":"2022-08-23T05:47:39.788Z","home_photos":{"collection":[{"description":null,"href":"https://ap.rdcpix.com/4ddd5a3fbe29b64811423508333940b5l-m2103257853s.jpg","type":null,"title":null,"tags":null},{"description":null,"href":"https://ap.rdcpix.com/4ddd5a3fbe29b64811423508333940b5l-m2512899738s.jpg","type":null,"title":null,"tags":null},{"description":null,"href":"https://ap.rdcpix.com/4ddd5a3fbe29b64811423508333940b5l-m1832071835s.jpg","type":null,"title":null,"tags":null}],"count":3}},{"permalink":"226-Southampton-Ln-257_Venice_FL_34293_M56237-01866","lead_attributes":{"show_contact_an_agent":true},"branding":[{"type":"Office","photo":null,"name":"Gulf Coast Realty \u0026 Management"}],"price_reduced_date":"2021-12-09T18:01:37.617Z","price_reduced_amount":1894,"matterport":false,"virtual_tours":[{"href":"https://www.propertypanorama.com/instaview/stellar/A4519044"}],"advertisers":[{"email":"andy@choosegulfcoast.com","fulfillment_id":"0","href":null,"mls_set":"A-ORFL-281517938","name":"Andy Moore","nrds_id":null,"office":{"email":"andy@choosegulfcoast.com","fulfillment_id":"3080468","mls_set":"O-ORFL-266508871","href":null,"name":"Gulf Coast Realty \u0026 Management","phones":[{"ext":null,"number":"(941) 782-1559","primary":false,"trackable":null,"type":"Office"}]},"phones":[{"ext":null,"number":"(941) 782-1559","primary":false,"trackable":null,"type":"Home"}]}],"description":{"baths":2,"baths_full":2,"baths_full_calc":2,"baths_half":null,"baths_3qtr":null,"baths_1qtr":null,"beds":2,"garage":1,"lot_sqft":2740795,"name":null,"sqft":1675,"sub_type":null,"type":"single_family","year_built":1984,"baths_min":null,"baths_max":null,"beds_max":null,"beds_min":null,"garage_min":null,"garage_max":null,"sqft_max":null,"sqft_min":null},"flags":{"is_pending":null,"is_deal_available":null,"is_for_rent":true,"is_garage_present":true,"is_senior_community":null,"is_new_listing":false},"href":"https://www.realtor.com/realestateandhomes-detail/226-Southampton-Ln-257_Venice_FL_34293_M56237-01866","last_price_change_amount":-1894,"last_price_change_date":"2021-12-09T18:01:37.617Z","last_update_date":"2021-12-09T17:55:38Z","list_date":"2021-11-30T18:24:49Z","list_price":2105,"list_price_min":null,"list_price_max":null,"listing_id":"2937251924","location":{"address":{"city":"Venice","coordinate":{"lat":27.055715,"lon":-82.367008},"country":"USA","line":"226 Southampton Ln # 257","postal_code":"34293","state":"Florida","state_code":"FL","street_direction":null,"street_name":"Southampton","street_number":"226","street_post_direction":null,"street_suffix":"Ln","unit":"# 257"},"county":{"fips_code":"12115","name":"Sarasota","state_code":"FL"},"search_areas":[{"city":"plantation","state_code":"fl"},{"city":"venice","state_code":"fl"},{"city":"west villages","state_code":"fl"}]},"photo_count":18,"photos":[{"description":null,"href":"https://ap.rdcpix.com/c31b7978c79c96d136c45a1d3ea1ad73l-m971866278s.jpg","type":null,"title":null,"tags":null},{"description":null,"href":"https://ap.rdcpix.com/c31b7978c79c96d136c45a1d3ea1ad73l-m4060938238s.jpg","type":null,"title":null,"tags":null},{"description":null,"href":"https://ap.rdcpix.com/c31b7978c79c96d136c45a1d3ea1ad73l-m3335764578s.jpg","type":null,"title":null,"tags":null}],"pet_policy":null,"primary_photo":{"description":null,"href":"https://ap.rdcpix.com/c31b7978c79c96d136c45a1d3ea1ad73l-m971866278s.jpg","type":null},"open_houses":null,"other_listings":{"rdc":[{"listing_id":"2937251924","status":"for_rent","primary":true},{"listing_id":"616657890","status":"off_market","primary":null},{"listing_id":"807986795","status":"off_market","primary":null},{"listing_id":"613117714","status":"sold","primary":null},{"listing_id":"586698078","status":"off_market","primary":null}]},"products":null,"property_history":null,"property_id":"5623701866","source":{"agents":[{"agent_id":"281517938","agent_name":"Andy Moore"}],"id":"ORFL","listing_id":"A4519044","community_id":null,"name":"StellarMLS","type":"mls"},"status":"for_rent","suppression_flags":null,"tags":["central_air","central_heat","community_tennis_court","recreation_facilities","washer_dryer","single_story","garage_1_or_more","community_swimming_pool","waterfront","master_bedroom","floor_plan","clubhouse","golf_course","lake","hoa","groundscare"],"when_indexed":"2022-08-23T05:45:39.972Z","home_photos":{"collection":[{"description":null,"href":"https://ap.rdcpix.com/c31b7978c79c96d136c45a1d3ea1ad73l-m971866278s.jpg","type":null,"title":null,"tags":null},{"description":null,"href":"https://ap.rdcpix.com/c31b7978c79c96d136c45a1d3ea1ad73l-m4060938238s.jpg","type":null,"title":null,"tags":null},{"description":null,"href":"https://ap.rdcpix.com/c31b7978c79c96d136c45a1d3ea1ad73l-m3335764578s.jpg","type":null,"title":null,"tags":null}],"count":3}},{"permalink":"11706-Tempest-Harbor-Loop_Venice_FL_34292_M56846-97776","lead_attributes":{"show_contact_an_agent":true},"branding":[{"type":"Office","photo":null,"name":null}],"price_reduced_date":"2022-08-24T00:02:08.335Z","price_reduced_amount":80,"matterport":false,"virtual_tours":null,"advertisers":[{"email":null,"fulfillment_id":null,"href":null,"mls_set":null,"name":null,"nrds_id":null,"office":{"email":"pathlight_sarasota_zillow@leads.anyonehome.com","fulfillment_id":null,"mls_set":null,"href":null,"name":null,"phones":[{"ext":null,"number":"8555979347","primary":false,"trackable":null,"type":"primary"}]},"phones":null}],"description":{"baths":2,"baths_full":2,"baths_full_calc":2,"baths_half":null,"baths_3qtr":null,"baths_1qtr":null,"beds":4,"garage":null,"lot_sqft":null,"name":null,"sqft":1749,"sub_type":null,"type":"single_family","year_built":2006,"baths_min":null,"baths_max":null,"beds_max":null,"beds_min":null,"garage_min":null,"garage_max":null,"sqft_max":null,"sqft_min":null},"flags":{"is_pending":null,"is_deal_available":null,"is_for_rent":true,"is_garage_present":null,"is_senior_community":null,"is_new_listing":false},"href":"https://www.realtor.com/realestateandhomes-detail/11706-Tempest-Harbor-Loop_Venice_FL_34292_M56846-97776","last_price_change_amount":-80,"last_price_change_date":"2022-08-24T00:02:08.335Z","last_update_date":"2022-08-23T19:14:17Z","list_date":"2022-03-31T00:00:40Z","list_price":2145,"list_price_min":null,"list_price_max":null,"listing_id":"2941627443","location":{"address":{"city":"Venice","coordinate":{"lat":27.081985,"lon":-82.338486},"country":"USA","line":"11706 Tempest Harbor Loop","postal_code":"34292","state":"Florida","state_code":"FL","street_direction":null,"street_name":"Tempest Harbor","street_number":"11706","street_post_direction":null,"street_suffix":"Loop","unit":null},"county":{"fips_code":"12115","name":"Sarasota","state_code":"FL"},"search_areas":[{"city":"venice","state_code":"fl"}]},"photo_count":16,"photos":[{"description":null,"href":"https://ap.rdcpix.com/6b4df160d4836c270d07a84a3a79225fl-m1066910585s.jpg","type":null,"title":null,"tags":null},{"description":null,"href":"https://ap.rdcpix.com/6b4df160d4836c270d07a84a3a79225fl-m3725905468s.jpg","type":null,"title":null,"tags":null},{"description":null,"href":"https://ap.rdcpix.com/6b4df160d4836c270d07a84a3a79225fl-m3077136917s.jpg","type":null,"title":null,"tags":null}],"pet_policy":{"cats":true,"dogs":true,"text":null},"primary_photo":{"description":null,"href":"https://ap.rdcpix.com/6b4df160d4836c270d07a84a3a79225fl-m1066910585s.jpg","type":null},"open_houses":null,"other_listings":{"rdc":[{"listing_id":"2941627443","status":"for_rent","primary":true},{"listing_id":"2944437825","status":"off_market","primary":null},{"listing_id":"649714062","status":"off_market","primary":null},{"listing_id":"627369358","status":"off_market","primary":null},{"listing_id":"607296422","status":"sold","primary":null},{"listing_id":"600481790","status":"sold","primary":null},{"listing_id":"612320266","status":"sold","primary":null},{"listing_id":"600473642","status":"off_market","primary":null},{"listing_id":"550352582","status":"off_market","primary":null},{"listing_id":"586703990","status":"sold","primary":null}]},"products":null,"property_history":null,"property_id":"5684697776","source":{"agents":null,"id":"PLPM","listing_id":"20762","community_id":null,"name":"PathlightPropertyManagement","type":"unit_rental"},"status":"for_rent","suppression_flags":null,"tags":["pets_allowed","community_swimming_pool","modern_kitchen","large_kitchen","rental_property","maintenance"],"when_indexed":"2022-08-24T00:03:51.208Z","home_photos":{"collection":[{"description":null,"href":"https://ap.rdcpix.com/6b4df160d4836c270d07a84a3a79225fl-m1066910585s.jpg","type":null,"title":null,"tags":null},{"description":null,"href":"https://ap.rdcpix.com/6b4df160d4836c270d07a84a3a79225fl-m3725905468s.jpg","type":null,"title":null,"tags":null},{"description":null,"href":"https://ap.rdcpix.com/6b4df160d4836c270d07a84a3a79225fl-m3077136917s.jpg","type":null,"title":null,"tags":null}],"count":3}},{"permalink":"2650-Oceanside-St_North-Port_FL_34286_M68145-60951","lead_attributes":{"show_contact_an_agent":true},"branding":[{"type":"Office","photo":null,"name":"Coldwell Banker Sunstar Realty"}],"price_reduced_date":null,"price_reduced_amount":null,"matterport":false,"virtual_tours":[{"href":"https://www.propertypanorama.com/instaview/stellar/D6125994"}],"advertisers":[{"email":"dianalegg@comcast.net","fulfillment_id":"1204916","href":null,"mls_set":"A-ORFL-256021743","name":"DIANA LEGG","nrds_id":"256021743","office":{"email":"laurie.bradley@cbsmfl.com","fulfillment_id":"1363817","mls_set":"O-ORFL-256010008","href":"http://www.ColdwellBankerFlorida.com","name":"Coldwell Banker Sunstar Realty","phones":[{"ext":null,"number":"9414750009","primary":false,"trackable":null,"type":"Office"},{"ext":null,"number":"8006157232","primary":false,"trackable":null,"type":"Toll Free"}]},"phones":[{"ext":null,"number":"9414754362","primary":false,"trackable":null,"type":"Office"}]}],"description":{"baths":2,"baths_full":2,"baths_full_calc":2,"baths_half":null,"baths_3qtr":null,"baths_1qtr":null,"beds":3,"garage":2,"lot_sqft":10000,"name":null,"sqft":1759,"sub_type":null,"type":"single_family","year_built":2003,"baths_min":null,"baths_max":null,"beds_max":null,"beds_min":null,"garage_min":null,"garage_max":null,"sqft_max":null,"sqft_min":null},"flags":{"is_pending":null,"is_deal_available":null,"is_for_rent":true,"is_garage_present":true,"is_senior_community":null,"is_new_listing":false},"href":"https://www.realtor.com/realestateandhomes-detail/2650-Oceanside-St_North-Port_FL_34286_M68145-60951","last_price_change_amount":null,"last_price_change_date":null,"last_update_date":"2022-08-11T17:13:15Z","list_date":"2022-08-09T20:23:08Z","list_price":2000,"list_price_min":null,"list_price_max":null,"listing_id":"2946568246","location":{"address":{"city":"North Port","coordinate":{"lat":27.07752,"lon":-82.165067},"country":"USA","line":"2650 Oceanside St","postal_code":"34286","state":"Florida","state_code":"FL","street_direction":null,"street_name":"Oceanside","street_number":"2650","street_post_direction":null,"street_suffix":"St","unit":null},"county":{"fips_code":"12115","name":"Sarasota","state_code":"FL"},"search_areas":[{"city":"north port","state_code":"fl"}]},"photo_count":14,"photos":[{"description":null,"href":"https://ap.rdcpix.com/24d8fbcc1860e097309999622b3eb9ecl-m1961674107s.jpg","type":null,"title":null,"tags":null},{"description":null,"href":"https://ap.rdcpix.com/24d8fbcc1860e097309999622b3eb9ecl-m1044525819s.jpg","type":null,"title":null,"tags":null},{"description":null,"href":"https://ap.rdcpix.com/24d8fbcc1860e097309999622b3eb9ecl-m1327548273s.jpg","type":null,"title":null,"tags":null}],"pet_policy":null,"primary_photo":{"description":null,"href":"https://ap.rdcpix.com/24d8fbcc1860e097309999622b3eb9ecl-m1961674107s.jpg","type":null},"open_houses":null,"other_listings":{"rdc":[{"listing_id":"2946568246","status":"for_rent","primary":true},{"listing_id":"617243370","status":"off_market","primary":null},{"listing_id":"586385790","status":"off_market","primary":null},{"listing_id":"606492794","status":"sold","primary":null}]},"products":{"product_attributes":{"lead_phone_number.office":"(941) 475-0009","lead_phone_number.office.mapped_number":"(941) 475-0009"},"products":["core.agent","core.broker"]},"property_history":null,"property_id":"6814560951","source":{"agents":[{"agent_id":"256021743","agent_name":"Diana Legg"}],"id":"ORFL","listing_id":"D6125994","community_id":null,"name":"StellarMLS","type":"mls"},"status":"for_rent","suppression_flags":null,"tags":["central_air","central_heat","city_view","dishwasher","family_room","laundry_room","view","washer_dryer","single_story","garage_1_or_more","garage_2_or_more","waterfront","vaulted_ceiling","master_bedroom","master_suite","rental_property"],"when_indexed":"2022-08-23T05:18:52.432Z","home_photos":{"collection":[{"description":null,"href":"https://ap.rdcpix.com/24d8fbcc1860e097309999622b3eb9ecl-m1961674107s.jpg","type":null,"title":null,"tags":null},{"description":null,"href":"https://ap.rdcpix.com/24d8fbcc1860e097309999622b3eb9ecl-m1044525819s.jpg","type":null,"title":null,"tags":null},{"description":null,"href":"https://ap.rdcpix.com/24d8fbcc1860e097309999622b3eb9ecl-m1327548273s.jpg","type":null,"title":null,"tags":null}],"count":3}},{"permalink":"3144-S-San-Mateo-Dr_North-Port_FL_34288_M50411-17302","lead_attributes":{"show_contact_an_agent":true},"branding":[{"type":"Office","photo":null,"name":"Tah Florida Llc"}],"price_reduced_date":"2022-08-22T15:41:57.298Z","price_reduced_amount":320,"matterport":false,"virtual_tours":[{"href":"https://www.propertypanorama.com/instaview/stellar/T3394917"}],"advertisers":[{"email":"slugo@triconah.com","fulfillment_id":"0","href":null,"mls_set":"A-ORFL-279603801","name":"Stephany Lugo","nrds_id":null,"office":{"email":"tricontampa@gmail.com","fulfillment_id":"2952291","mls_set":"O-ORFL-781077","href":null,"name":"Tah Florida Llc","phones":[{"ext":null,"number":"8448742661","primary":false,"trackable":null,"type":"Office"}]},"phones":[{"ext":null,"number":"(978) 406-1631","primary":false,"trackable":null,"type":"Mobile"}]}],"description":{"baths":2,"baths_full":2,"baths_full_calc":2,"baths_half":null,"baths_3qtr":null,"baths_1qtr":null,"beds":3,"garage":2,"lot_sqft":10000,"name":null,"sqft":1477,"sub_type":null,"type":"single_family","year_built":2019,"baths_min":null,"baths_max":null,"beds_max":null,"beds_min":null,"garage_min":null,"garage_max":null,"sqft_max":null,"sqft_min":null},"flags":{"is_pending":null,"is_deal_available":null,"is_for_rent":true,"is_garage_present":true,"is_senior_community":null,"is_new_listing":false},"href":"https://www.realtor.com/realestateandhomes-detail/3144-S-San-Mateo-Dr_North-Port_FL_34288_M50411-17302","last_price_change_amount":-320,"last_price_change_date":"2022-08-22T15:41:57.298Z","last_update_date":"2022-08-22T15:35:01Z","list_date":"2022-08-10T19:10:59Z","list_price":2019,"list_price_min":null,"list_price_max":null,"listing_id":"2946597657","location":{"address":{"city":"North Port","coordinate":{"lat":27.049011,"lon":-82.120363},"country":"USA","line":"3144 S San Mateo Dr","postal_code":"34288","state":"Florida","state_code":"FL","street_direction":"S","street_name":"San Mateo","street_number":"3144","street_post_direction":null,"street_suffix":"Dr","unit":null},"county":{"fips_code":"12115","name":"Sarasota","state_code":"FL"},"search_areas":[{"city":"north port","state_code":"fl"}]},"photo_count":11,"photos":[{"description":null,"href":"https://ap.rdcpix.com/72f9d039a9f57fa555cfaf5749bd399al-m2675532856s.jpg","type":null,"title":null,"tags":null},{"description":null,"href":"https://ap.rdcpix.com/72f9d039a9f57fa555cfaf5749bd399al-m3907543032s.jpg","type":null,"title":null,"tags":null},{"description":null,"href":"https://ap.rdcpix.com/72f9d039a9f57fa555cfaf5749bd399al-m3272877682s.jpg","type":null,"title":null,"tags":null}],"pet_policy":{"cats":true,"dogs":true,"text":null},"primary_photo":{"description":null,"href":"https://ap.rdcpix.com/72f9d039a9f57fa555cfaf5749bd399al-m2675532856s.jpg","type":null},"open_houses":null,"other_listings":{"rdc":[{"listing_id":"2946597657","status":"for_rent","primary":true},{"listing_id":"2936225998","status":"off_market","primary":null},{"listing_id":"2935981224","status":"off_market","primary":null},{"listing_id":"2935673883","status":"off_market","primary":null},{"listing_id":"2915188602","status":"off_market","primary":null},{"listing_id":"2931383978","status":"sold","primary":null},{"listing_id":"637831370","status":"off_market","primary":null}]},"products":null,"property_history":null,"property_id":"5041117302","source":{"agents":[{"agent_id":"279603801","agent_name":"Stephany Lugo"}],"id":"ORFL","listing_id":"T3394917","community_id":null,"name":"StellarMLS","type":"mls"},"status":"for_rent","suppression_flags":null,"tags":["central_air","central_heat","pets_allowed","single_story","garage_1_or_more","garage_2_or_more","rental_property","maintenance"],"when_indexed":"2022-08-23T05:45:20.539Z","home_photos":{"collection":[{"description":null,"href":"https://ap.rdcpix.com/72f9d039a9f57fa555cfaf5749bd399al-m2675532856s.jpg","type":null,"title":null,"tags":null},{"description":null,"href":"https://ap.rdcpix.com/72f9d039a9f57fa555cfaf5749bd399al-m3907543032s.jpg","type":null,"title":null,"tags":null},{"description":null,"href":"https://ap.rdcpix.com/72f9d039a9f57fa555cfaf5749bd399al-m3272877682s.jpg","type":null,"title":null,"tags":null}],"count":3}},{"permalink":"1651-New-London-St_North-Port_FL_34288_M67237-69743","lead_attributes":{"show_contact_an_agent":true},"branding":[{"type":"Office","photo":null,"name":"REALTY BY DALE THOMAS"}],"price_reduced_date":null,"price_reduced_amount":null,"matterport":false,"virtual_tours":[{"href":"https://www.propertypanorama.com/instaview/stellar/C7464875"}],"advertisers":[{"email":"Nicole@RealEstatebyDaleThomas.com","fulfillment_id":"1288573","href":"http://www.realestatebydalethomas.com","mls_set":"A-ORFL-284502452","name":"NICOLE SMITH-MAYLE","nrds_id":"284502452","office":{"email":"nicole@realestatebydalethomas.com","fulfillment_id":"2964415","mls_set":"O-ORFL-284509140","href":"WWW.REALESTATEBYDALETHOMAS.COM","name":"REALTY BY DALE THOMAS","phones":[{"ext":null,"number":"9419798497","primary":false,"trackable":null,"type":"Office"}]},"phones":[{"ext":null,"number":"9414681964","primary":false,"trackable":null,"type":"Mobile"},{"ext":null,"number":"9412406121","primary":false,"trackable":null,"type":"Office"}]}],"description":{"baths":1,"baths_full":1,"baths_full_calc":1,"baths_half":null,"baths_3qtr":null,"baths_1qtr":null,"beds":2,"garage":null,"lot_sqft":20038,"name":null,"sqft":1288,"sub_type":null,"type":"single_family","year_built":1984,"baths_min":null,"baths_max":null,"beds_max":null,"beds_min":null,"garage_min":null,"garage_max":null,"sqft_max":null,"sqft_min":null},"flags":{"is_pending":null,"is_deal_available":null,"is_for_rent":true,"is_garage_present":null,"is_senior_community":true,"is_new_listing":false},"href":"https://www.realtor.com/realestateandhomes-detail/1651-New-London-St_North-Port_FL_34288_M67237-69743","last_price_change_amount":null,"last_price_change_date":null,"last_update_date":"2022-08-11T14:21:22Z","list_date":"2022-08-09T22:23:18Z","list_price":2100,"list_price_min":null,"list_price_max":null,"listing_id":"2946573400","location":{"address":{"city":"North Port","coordinate":{"lat":27.062635,"lon":-82.114553},"country":"USA","line":"1651 New London St","postal_code":"34288","state":"Florida","state_code":"FL","street_direction":null,"street_name":"New London","street_number":"1651","street_post_direction":null,"street_suffix":"St","unit":null},"county":{"fips_code":"12115","name":"Sarasota","state_code":"FL"},"search_areas":[{"city":"north port","state_code":"fl"}]},"photo_count":29,"photos":[{"description":null,"href":"https://ap.rdcpix.com/27909f67ba86961a0197ea33c7d39a36l-m673123174s.jpg","type":null,"title":null,"tags":null},{"description":null,"href":"https://ap.rdcpix.com/27909f67ba86961a0197ea33c7d39a36l-m773234380s.jpg","type":null,"title":null,"tags":null},{"description":null,"href":"https://ap.rdcpix.com/27909f67ba86961a0197ea33c7d39a36l-m2477498655s.jpg","type":null,"title":null,"tags":null}],"pet_policy":null,"primary_photo":{"description":null,"href":"https://ap.rdcpix.com/27909f67ba86961a0197ea33c7d39a36l-m673123174s.jpg","type":null},"open_houses":null,"other_listings":{"rdc":[{"listing_id":"2946573400","status":"for_rent","primary":true},{"listing_id":"2945782798","status":"off_market","primary":null},{"listing_id":"644469714","status":"sold","primary":null}]},"products":{"product_attributes":null,"products":["core.agent","core.broker"]},"property_history":null,"property_id":"6723769743","source":{"agents":[{"agent_id":"284502452","agent_name":"Nicole Smith-mayle"}],"id":"ORFL","listing_id":"C7464875","community_id":null,"name":"StellarMLS","type":"mls"},"status":"for_rent","suppression_flags":null,"tags":["carport","central_air","central_heat","dining_room","laundry_room","senior_community","washer_dryer","single_story","waterfront","fruit_trees","park","shopping"],"when_indexed":"2022-08-23T05:22:20.850Z","home_photos":{"collection":[{"description":null,"href":"https://ap.rdcpix.com/27909f67ba86961a0197ea33c7d39a36l-m673123174s.jpg","type":null,"title":null,"tags":null},{"description":null,"href":"https://ap.rdcpix.com/27909f67ba86961a0197ea33c7d39a36l-m773234380s.jpg","type":null,"title":null,"tags":null},{"description":null,"href":"https://ap.rdcpix.com/27909f67ba86961a0197ea33c7d39a36l-m2477498655s.jpg","type":null,"title":null,"tags":null}],"count":3}},{"permalink":"11924-Gretchen-Ave_Port-Charlotte_FL_33981_M52340-71486","lead_attributes":{"show_contact_an_agent":true},"branding":[{"type":"Office","photo":null,"name":"Tah Florida Llc"}],"price_reduced_date":"2022-08-16T00:29:02.363Z","price_reduced_amount":50,"matterport":false,"virtual_tours":[{"href":"https://www.propertypanorama.com/instaview/stellar/T3394953"}],"advertisers":[{"email":"slugo@triconah.com","fulfillment_id":"0","href":null,"mls_set":"A-ORFL-279603801","name":"Stephany Lugo","nrds_id":null,"office":{"email":"tricontampa@gmail.com","fulfillment_id":"2952291","mls_set":"O-ORFL-781077","href":null,"name":"Tah Florida Llc","phones":[{"ext":null,"number":"8448742661","primary":false,"trackable":null,"type":"Office"}]},"phones":[{"ext":null,"number":"(978) 406-1631","primary":false,"trackable":null,"type":"Mobile"}]}],"description":{"baths":2,"baths_full":2,"baths_full_calc":2,"baths_half":null,"baths_3qtr":null,"baths_1qtr":null,"beds":3,"garage":2,"lot_sqft":9999,"name":null,"sqft":1280,"sub_type":null,"type":"single_family","year_built":2007,"baths_min":null,"baths_max":null,"beds_max":null,"beds_min":null,"garage_min":null,"garage_max":null,"sqft_max":null,"sqft_min":null},"flags":{"is_pending":null,"is_deal_available":null,"is_for_rent":true,"is_garage_present":true,"is_senior_community":null,"is_new_listing":false},"href":"https://www.realtor.com/realestateandhomes-detail/11924-Gretchen-Ave_Port-Charlotte_FL_33981_M52340-71486","last_price_change_amount":-50,"last_price_change_date":"2022-08-16T00:29:02.363Z","last_update_date":"2022-08-16T00:27:48Z","list_date":"2022-08-10T13:47:10Z","list_price":2149,"list_price_min":null,"list_price_max":null,"listing_id":"2946580648","location":{"address":{"city":"Port Charlotte","coordinate":{"lat":26.925385,"lon":-82.257919},"country":"USA","line":"11924 Gretchen Ave","postal_code":"33981","state":"Florida","state_code":"FL","street_direction":null,"street_name":"Gretchen","street_number":"11924","street_post_direction":null,"street_suffix":"Ave","unit":null},"county":{"fips_code":"12015","name":"Charlotte","state_code":"FL"},"search_areas":[{"city":"port charlotte","state_code":"fl"}]},"photo_count":6,"photos":[{"description":null,"href":"https://ap.rdcpix.com/f02ee07edd4dedbe7f3eeee16cb3728cl-m426634789s.jpg","type":null,"title":null,"tags":null},{"description":null,"href":"https://ap.rdcpix.com/f02ee07edd4dedbe7f3eeee16cb3728cl-m1600968389s.jpg","type":null,"title":null,"tags":null},{"description":null,"href":"https://ap.rdcpix.com/f02ee07edd4dedbe7f3eeee16cb3728cl-m4042660691s.jpg","type":null,"title":null,"tags":null}],"pet_policy":{"cats":true,"dogs":true,"text":null},"primary_photo":{"description":null,"href":"https://ap.rdcpix.com/f02ee07edd4dedbe7f3eeee16cb3728cl-m426634789s.jpg","type":null},"open_houses":null,"other_listings":{"rdc":[{"listing_id":"2946580648","status":"for_rent","primary":true},{"listing_id":"2944999462","status":"off_market","primary":null},{"listing_id":"2941836050","status":"sold","primary":null},{"listing_id":"572797222","status":"sold","primary":null},{"listing_id":"596096274","status":"sold","primary":null}]},"products":null,"property_history":null,"property_id":"5234071486","source":{"agents":[{"agent_id":"279603801","agent_name":"Stephany Lugo"}],"id":"ORFL","listing_id":"T3394953","community_id":null,"name":"StellarMLS","type":"mls"},"status":"for_rent","suppression_flags":null,"tags":["central_air","central_heat","pets_allowed","single_story","garage_1_or_more","garage_2_or_more","rental_property","maintenance"],"when_indexed":"2022-08-23T05:39:49.518Z","home_photos":{"collection":[{"description":null,"href":"https://ap.rdcpix.com/f02ee07edd4dedbe7f3eeee16cb3728cl-m426634789s.jpg","type":null,"title":null,"tags":null},{"description":null,"href":"https://ap.rdcpix.com/f02ee07edd4dedbe7f3eeee16cb3728cl-m1600968389s.jpg","type":null,"title":null,"tags":null},{"description":null,"href":"https://ap.rdcpix.com/f02ee07edd4dedbe7f3eeee16cb3728cl-m4042660691s.jpg","type":null,"title":null,"tags":null}],"count":3}},{"permalink":"18291-Troon-Ave_Port-Charlotte_FL_33948_M60846-13187","lead_attributes":{"show_contact_an_agent":true},"branding":[{"type":"Office","photo":null,"name":"Tah Florida Llc"}],"price_reduced_date":"2022-08-22T15:41:57.298Z","price_reduced_amount":40,"matterport":false,"virtual_tours":[{"href":"https://www.propertypanorama.com/instaview/stellar/T3394951"}],"advertisers":[{"email":"slugo@triconah.com","fulfillment_id":"0","href":null,"mls_set":"A-ORFL-279603801","name":"Stephany Lugo","nrds_id":null,"office":{"email":"tricontampa@gmail.com","fulfillment_id":"2952291","mls_set":"O-ORFL-781077","href":null,"name":"Tah Florida Llc","phones":[{"ext":null,"number":"8448742661","primary":false,"trackable":null,"type":"Office"}]},"phones":[{"ext":null,"number":"(978) 406-1631","primary":false,"trackable":null,"type":"Mobile"}]}],"description":{"baths":2,"baths_full":2,"baths_full_calc":2,"baths_half":null,"baths_3qtr":null,"baths_1qtr":null,"beds":3,"garage":2,"lot_sqft":20038,"name":null,"sqft":1389,"sub_type":null,"type":"single_family","year_built":2003,"baths_min":null,"baths_max":null,"beds_max":null,"beds_min":null,"garage_min":null,"garage_max":null,"sqft_max":null,"sqft_min":null},"flags":{"is_pending":null,"is_deal_available":null,"is_for_rent":true,"is_garage_present":true,"is_senior_community":null,"is_new_listing":false},"href":"https://www.realtor.com/realestateandhomes-detail/18291-Troon-Ave_Port-Charlotte_FL_33948_M60846-13187","last_price_change_amount":-40,"last_price_change_date":"2022-08-22T15:41:57.298Z","last_update_date":"2022-08-22T15:36:08Z","list_date":"2022-08-10T13:47:10Z","list_price":1999,"list_price_min":null,"list_price_max":null,"listing_id":"2946580660","location":{"address":{"city":"Port Charlotte","coordinate":{"lat":26.998714,"lon":-82.146933},"country":"USA","line":"18291 Troon Ave","postal_code":"33948","state":"Florida","state_code":"FL","street_direction":null,"street_name":"Troon","street_number":"18291","street_post_direction":null,"street_suffix":"Ave","unit":null},"county":{"fips_code":"12015","name":"Charlotte","state_code":"FL"},"search_areas":[{"city":"port charlotte","state_code":"fl"}]},"photo_count":7,"photos":[{"description":null,"href":"https://ap.rdcpix.com/4ad676f67098bae9183b91144f16cff4l-m2007105134s.jpg","type":null,"title":null,"tags":null},{"description":null,"href":"https://ap.rdcpix.com/4ad676f67098bae9183b91144f16cff4l-m2432183461s.jpg","type":null,"title":null,"tags":null},{"description":null,"href":"https://ap.rdcpix.com/4ad676f67098bae9183b91144f16cff4l-m3255765230s.jpg","type":null,"title":null,"tags":null}],"pet_policy":{"cats":true,"dogs":true,"text":null},"primary_photo":{"description":null,"href":"https://ap.rdcpix.com/4ad676f67098bae9183b91144f16cff4l-m2007105134s.jpg","type":null},"open_houses":null,"other_listings":{"rdc":[{"listing_id":"2946580660","status":"for_rent","primary":true},{"listing_id":"2944982227","status":"off_market","primary":null},{"listing_id":"2942224835","status":"sold","primary":null},{"listing_id":"629806782","status":"off_market","primary":null}]},"products":null,"property_history":null,"property_id":"6084613187","source":{"agents":[{"agent_id":"279603801","agent_name":"Stephany Lugo"}],"id":"ORFL","listing_id":"T3394951","community_id":null,"name":"StellarMLS","type":"mls"},"status":"for_rent","suppression_flags":null,"tags":["central_air","central_heat","pets_allowed","single_story","garage_1_or_more","garage_2_or_more","rental_property","maintenance"],"when_indexed":"2022-08-23T05:29:00.243Z","home_photos":{"collection":[{"description":null,"href":"https://ap.rdcpix.com/4ad676f67098bae9183b91144f16cff4l-m2007105134s.jpg","type":null,"title":null,"tags":null},{"description":null,"href":"https://ap.rdcpix.com/4ad676f67098bae9183b91144f16cff4l-m2432183461s.jpg","type":null,"title":null,"tags":null},{"description":null,"href":"https://ap.rdcpix.com/4ad676f67098bae9183b91144f16cff4l-m3255765230s.jpg","type":null,"title":null,"tags":null}],"count":3}},{"permalink":"21269-Coachman-Ave_Port-Charlotte_FL_33952_M59610-02056","lead_attributes":{"show_contact_an_agent":true},"branding":[{"type":"Office","photo":null,"name":"ERA ADVANTAGE REALTY, INC."}],"price_reduced_date":null,"price_reduced_amount":null,"matterport":false,"virtual_tours":[{"href":"https://www.propertypanorama.com/instaview/stellar/C7465061"}],"advertisers":[{"email":"office@eraportcharlotte.com","fulfillment_id":"836798","href":null,"mls_set":"A-ORFL-274500368","name":"Joel Ament","nrds_id":"274500368","office":{"email":"joelament@earthlink.net","fulfillment_id":"107086","mls_set":"O-ORFL-274500168","href":"WWW.ERAPORTCHARLOTTE.COM","name":"ERA ADVANTAGE REALTY, INC.","phones":[{"ext":null,"number":"9412555300","primary":false,"trackable":null,"type":"Office"}]},"phones":[{"ext":null,"number":"9412555300","primary":false,"trackable":null,"type":"Office"},{"ext":null,"number":"8009405033","primary":false,"trackable":null,"type":"Toll Free"},{"ext":null,"number":"9412555351","primary":false,"trackable":null,"type":"Mobile"}]}],"description":{"baths":2,"baths_full":2,"baths_full_calc":2,"baths_half":null,"baths_3qtr":null,"baths_1qtr":null,"beds":3,"garage":2,"lot_sqft":10000,"name":null,"sqft":1309,"sub_type":null,"type":"single_family","year_built":1979,"baths_min":null,"baths_max":null,"beds_max":null,"beds_min":null,"garage_min":null,"garage_max":null,"sqft_max":null,"sqft_min":null},"flags":{"is_pending":null,"is_deal_available":null,"is_for_rent":true,"is_garage_present":true,"is_senior_community":null,"is_new_listing":false},"href":"https://www.realtor.com/realestateandhomes-detail/21269-Coachman-Ave_Port-Charlotte_FL_33952_M59610-02056","last_price_change_amount":null,"last_price_change_date":null,"last_update_date":"2022-08-15T21:16:38Z","list_date":"2022-08-15T18:47:13Z","list_price":1950,"list_price_min":null,"list_price_max":null,"listing_id":"2946736909","location":{"address":{"city":"Port Charlotte","coordinate":{"lat":27.005711,"lon":-82.098634},"country":"USA","line":"21269 Coachman Ave","postal_code":"33952","state":"Florida","state_code":"FL","street_direction":null,"street_name":"Coachman","street_number":"21269","street_post_direction":null,"street_suffix":"Ave","unit":null},"county":{"fips_code":"12015","name":"Charlotte","state_code":"FL"},"search_areas":[{"city":"port charlotte","state_code":"fl"}]},"photo_count":14,"photos":[{"description":null,"href":"https://ap.rdcpix.com/75fcb5535e68c4b84716a5bc34627f1dl-m2436930276s.jpg","type":null,"title":null,"tags":null},{"description":null,"href":"https://ap.rdcpix.com/75fcb5535e68c4b84716a5bc34627f1dl-m2036209492s.jpg","type":null,"title":null,"tags":null},{"description":null,"href":"https://ap.rdcpix.com/75fcb5535e68c4b84716a5bc34627f1dl-m1122662443s.jpg","type":null,"title":null,"tags":null}],"pet_policy":{"cats":true,"dogs":true,"text":null},"primary_photo":{"description":null,"href":"https://ap.rdcpix.com/75fcb5535e68c4b84716a5bc34627f1dl-m2436930276s.jpg","type":null},"open_houses":null,"other_listings":{"rdc":[{"listing_id":"2946736909","status":"for_rent","primary":true},{"listing_id":"2927290310","status":"sold","primary":null},{"listing_id":"558574222","status":"off_market","primary":null},{"listing_id":"556100622","status":"sold","primary":null}]},"products":{"product_attributes":null,"products":["core.agent","core.broker"]},"property_history":null,"property_id":"5961002056","source":{"agents":[{"agent_id":"274500368","agent_name":"Joel Ament"}],"id":"ORFL","listing_id":"C7465061","community_id":null,"name":"StellarMLS","type":"mls"},"status":"for_rent","suppression_flags":null,"tags":["central_air","central_heat","pets_allowed","single_story","garage_1_or_more","garage_2_or_more","rental_property","shopping"],"when_indexed":"2022-08-23T05:32:40.082Z","home_photos":{"collection":[{"description":null,"href":"https://ap.rdcpix.com/75fcb5535e68c4b84716a5bc34627f1dl-m2436930276s.jpg","type":null,"title":null,"tags":null},{"description":null,"href":"https://ap.rdcpix.com/75fcb5535e68c4b84716a5bc34627f1dl-m2036209492s.jpg","type":null,"title":null,"tags":null},{"description":null,"href":"https://ap.rdcpix.com/75fcb5535e68c4b84716a5bc34627f1dl-m1122662443s.jpg","type":null,"title":null,"tags":null}],"count":3}}],"top_real_estate_markets":{"title":"Apartments for Rent in Florida","top_markets":[{"url":"https://www.realtor.com/apartments/Miami_FL","city":"Miami Apartments for Rent","text":"Miami Apartments for Rent"},{"url":"https://www.realtor.com/apartments/Jacksonville_FL","city":"Jacksonville Apartments for Rent","text":"Jacksonville Apartments for Rent"},{"url":"https://www.realtor.com/apartments/Orlando_FL","city":"Orlando Apartments for Rent","text":"Orlando Apartments for Rent"},{"url":"https://www.realtor.com/apartments/Tampa_FL","city":"Tampa Apartments for Rent","text":"Tampa Apartments for Rent"},{"url":"https://www.realtor.com/apartments/Naples_FL","city":"Naples Apartments for Rent","text":"Naples Apartments for Rent"},{"url":"https://www.realtor.com/apartments/Miami-Beach_FL","city":"Miami Beach Apartments for Rent","text":"Miami Beach Apartments for Rent"},{"url":"https://www.realtor.com/apartments/Fort-Lauderdale_FL","city":"Fort Lauderdale Apartments for Rent","text":"Fort Lauderdale Apartments for Rent"},{"url":"https://www.realtor.com/apartments/West-Palm-Beach_FL","city":"West Palm Beach Apartments for Rent","text":"West Palm Beach Apartments for Rent"},{"url":"https://www.realtor.com/apartments/Boca-Raton_FL","city":"Boca Raton Apartments for Rent","text":"Boca Raton Apartments for Rent"},{"url":"https://www.realtor.com/apartments/Hollywood_FL","city":"Hollywood Apartments for Rent","text":"Hollywood Apartments for Rent"},{"url":"https://www.realtor.com/apartments/Sarasota_FL","city":"Sarasota Apartments for Rent","text":"Sarasota Apartments for Rent"},{"url":"https://www.realtor.com/apartments/Delray-Beach_FL","city":"Delray Beach Apartments for Rent","text":"Delray Beach Apartments for Rent"},{"url":"https://www.realtor.com/apartments/Doral_FL","city":"Doral Apartments for Rent","text":"Doral Apartments for Rent"},{"url":"https://www.realtor.com/apartments/Sunny-Isles-Beach_FL","city":"Sunny Isles Beach Apartments for Rent","text":"Sunny Isles Beach Apartments for Rent"},{"url":"https://www.realtor.com/apartments/Fort-Myers_FL","city":"Fort Myers Apartments for Rent","text":"Fort Myers Apartments for Rent"},{"url":"https://www.realtor.com/apartments/Pompano-Beach_FL","city":"Pompano Beach Apartments for Rent","text":"Pompano Beach Apartments for Rent"},{"url":"https://www.realtor.com/apartments/Clearwater_FL","city":"Clearwater Apartments for Rent","text":"Clearwater Apartments for Rent"},{"url":"https://www.realtor.com/apartments/Cape-Coral_FL","city":"Cape Coral Apartments for Rent","text":"Cape Coral Apartments for Rent"},{"url":"https://www.realtor.com/apartments/Kissimmee_FL","city":"Kissimmee Apartments for Rent","text":"Kissimmee Apartments for Rent"},{"url":"https://www.realtor.com/apartments/Pembroke-Pines_FL","city":"Pembroke Pines Apartments for Rent","text":"Pembroke Pines Apartments for Rent"},{"url":"https://www.realtor.com/apartments/Bradenton_FL","city":"Bradenton Apartments for Rent","text":"Bradenton Apartments for Rent"},{"url":"https://www.realtor.com/apartments/Plantation_Broward-County_FL","city":"Plantation Apartments for Rent","text":"Plantation Apartments for Rent"},{"url":"https://www.realtor.com/apartments/Hallandale-Beach_FL","city":"Hallandale Beach Apartments for Rent","text":"Hallandale Beach Apartments for Rent"},{"url":"https://www.realtor.com/apartments/Boynton-Beach_FL","city":"Boynton Beach Apartments for Rent","text":"Boynton Beach Apartments for Rent"},{"url":"https://www.realtor.com/apartments/Aventura_FL","city":"Aventura Apartments for Rent","text":"Aventura Apartments for Rent"},{"url":"https://www.realtor.com/apartments/Coral-Springs_FL","city":"Coral Springs Apartments for Rent","text":"Coral Springs Apartments for Rent"},{"url":"https://www.realtor.com/apartments/Vero-Beach_FL","city":"Vero Beach Apartments for Rent","text":"Vero Beach Apartments for Rent"},{"url":"https://www.realtor.com/apartments/Wellington_FL","city":"Wellington Apartments for Rent","text":"Wellington Apartments for Rent"}]},"popular_searches":null,"property_types":null},"consumer_search":{"costar_counts":{"costar_total":0,"non_costar_total":3},"count":3,"total":10,"aggregation":null,"results":[{"permalink":"7427-Cass-Cir_Sarasota_FL_34231_M57480-17901","lead_attributes":{"show_contact_an_agent":true},"branding":[{"type":"Office","photo":null,"name":null}],"price_reduced_date":"2022-08-23T01:10:56.868Z","price_reduced_amount":100,"matterport":false,"virtual_tours":[{"href":"https://www.propertypanorama.com/instaview/stellar/A4504392"}],"advertisers":[{"email":null,"fulfillment_id":null,"href":null,"mls_set":null,"name":null,"nrds_id":null,"office":{"email":"rentalservice@move.com","fulfillment_id":null,"mls_set":null,"href":null,"name":null,"phones":[{"ext":null,"number":"9415003027","primary":false,"trackable":null,"type":"primary"}]},"phones":null}],"description":{"baths":2,"baths_full":2,"baths_full_calc":2,"baths_half":null,"baths_3qtr":null,"baths_1qtr":null,"beds":2,"garage":null,"lot_sqft":null,"name":null,"sqft":1267,"sub_type":null,"type":"single_family","year_built":1965,"baths_min":null,"baths_max":null,"beds_max":null,"beds_min":null,"garage_min":null,"garage_max":null,"sqft_max":null,"sqft_min":null},"flags":{"is_pending":null,"is_deal_available":null,"is_for_rent":true,"is_garage_present":null,"is_senior_community":null,"is_new_listing":null},"href":"https://www.realtor.com/realestateandhomes-detail/7427-Cass-Cir_Sarasota_FL_34231_M57480-17901","last_price_change_amount":-100,"last_price_change_date":"2022-08-23T01:10:56.868Z","last_update_date":"2022-08-23T01:10:56Z","list_date":null,"list_price":2095,"list_price_min":null,"list_price_max":null,"listing_id":"2759840003","location":{"address":{"city":"Sarasota","coordinate":{"lat":27.247983,"lon":-82.508868},"country":"USA","line":"7427 Cass Cir","postal_code":"34231","state":"Florida","state_code":"FL","street_direction":null,"street_name":"Cass","street_number":"7427","street_post_direction":null,"street_suffix":"Cir","unit":null},"county":{"fips_code":"12115","name":"Sarasota","state_code":"FL"},"search_areas":[{"city":"gulf gate estates","state_code":"fl"},{"city":"sarasota","state_code":"fl"}]},"photo_count":14,"photos":[{"description":null,"href":"https://ap.rdcpix.com/ad6924a13b8d48c602e1e98710dac2e7l-m3366291411s.jpg","type":null,"title":null,"tags":null},{"description":null,"href":"https://ap.rdcpix.com/ad6924a13b8d48c602e1e98710dac2e7l-m3388827342s.jpg","type":null,"title":null,"tags":null},{"description":null,"href":"https://ap.rdcpix.com/ad6924a13b8d48c602e1e98710dac2e7l-m1921490644s.jpg","type":null,"title":null,"tags":null}],"pet_policy":{"cats":true,"dogs":true,"text":null},"primary_photo":{"description":null,"href":"https://ap.rdcpix.com/ad6924a13b8d48c602e1e98710dac2e7l-m3366291411s.jpg","type":null},"open_houses":null,"other_listings":{"rdc":[{"listing_id":"2759840003","status":"for_rent","primary":true},{"listing_id":"2938976815","status":"off_market","primary":null},{"listing_id":"2930632652","status":"off_market","primary":null},{"listing_id":"502420562","status":"off_market","primary":null},{"listing_id":"561312750","status":"sold","primary":null}]},"products":null,"property_history":null,"property_id":"5748017901","source":{"agents":null,"id":"RXUN","listing_id":"5258109","community_id":null,"name":"RentlinxUnits","type":"unit_rental"},"status":"for_rent","suppression_flags":{"has_suppress_list_date":true,"has_suppress_foreclosure":true},"tags":["pets_allowed","front_porch","rental_property","maintenance","shopping"],"when_indexed":"2022-08-23T05:37:11.346Z","home_photos":{"collection":[{"description":null,"href":"https://ap.rdcpix.com/ad6924a13b8d48c602e1e98710dac2e7l-m3366291411s.jpg","type":null,"title":null,"tags":null},{"description":null,"href":"https://ap.rdcpix.com/ad6924a13b8d48c602e1e98710dac2e7l-m3388827342s.jpg","type":null,"title":null,"tags":null},{"description":null,"href":"https://ap.rdcpix.com/ad6924a13b8d48c602e1e98710dac2e7l-m1921490644s.jpg","type":null,"title":null,"tags":null}],"count":3}},{"permalink":"3132-Johannesberg-Rd_North-Port_FL_34288_M55017-32176","lead_attributes":{"show_contact_an_agent":true},"branding":[{"type":"Office","photo":null,"name":null}],"price_reduced_date":"2022-08-18T00:20:35.16Z","price_reduced_amount":50,"matterport":false,"virtual_tours":[{"href":"https://www.propertypanorama.com/instaview/stellar/T3372255"}],"advertisers":[{"email":null,"fulfillment_id":null,"href":null,"mls_set":null,"name":null,"nrds_id":null,"office":{"email":"rent+413783@tenantturnermail.com","fulfillment_id":null,"mls_set":null,"href":null,"name":null,"phones":[{"ext":null,"number":"8337746323","primary":false,"trackable":null,"type":"primary"}]},"phones":null}],"description":{"baths":2,"baths_full":2,"baths_full_calc":2,"baths_half":null,"baths_3qtr":null,"baths_1qtr":null,"beds":3,"garage":null,"lot_sqft":null,"name":null,"sqft":1376,"sub_type":null,"type":"single_family","year_built":null,"baths_min":null,"baths_max":null,"beds_max":null,"beds_min":null,"garage_min":null,"garage_max":null,"sqft_max":null,"sqft_min":null},"flags":{"is_pending":null,"is_deal_available":null,"is_for_rent":true,"is_garage_present":null,"is_senior_community":null,"is_new_listing":null},"href":"https://www.realtor.com/realestateandhomes-detail/3132-Johannesberg-Rd_North-Port_FL_34288_M55017-32176","last_price_change_amount":-50,"last_price_change_date":"2022-08-18T00:20:35.16Z","last_update_date":"2022-08-17T23:03:11Z","list_date":null,"list_price":2045,"list_price_min":null,"list_price_max":null,"listing_id":"2944255469","location":{"address":{"city":"North Port","coordinate":{"lat":27.053973,"lon":-82.134684},"country":"USA","line":"3132 Johannesberg Rd","postal_code":"34288","state":"Florida","state_code":"FL","street_direction":null,"street_name":"Johannesberg","street_number":"3132","street_post_direction":null,"street_suffix":"Rd","unit":null},"county":{"fips_code":"12115","name":"Sarasota","state_code":"FL"},"search_areas":[{"city":"north port","state_code":"fl"}]},"photo_count":18,"photos":[{"description":null,"href":"https://ap.rdcpix.com/4ddd5a3fbe29b64811423508333940b5l-m2103257853s.jpg","type":null,"title":null,"tags":null},{"description":null,"href":"https://ap.rdcpix.com/4ddd5a3fbe29b64811423508333940b5l-m2512899738s.jpg","type":null,"title":null,"tags":null},{"description":null,"href":"https://ap.rdcpix.com/4ddd5a3fbe29b64811423508333940b5l-m1832071835s.jpg","type":null,"title":null,"tags":null}],"pet_policy":null,"primary_photo":{"description":null,"href":"https://ap.rdcpix.com/4ddd5a3fbe29b64811423508333940b5l-m2103257853s.jpg","type":null},"open_houses":null,"other_listings":{"rdc":[{"listing_id":"2944255469","status":"for_rent","primary":true},{"listing_id":"2942953853","status":"sold","primary":null},{"listing_id":"539608842","status":"sold","primary":null},{"listing_id":"586395126","status":"off_market","primary":null}]},"products":null,"property_history":null,"property_id":"5501732176","source":{"agents":null,"id":"TURN","listing_id":"413783","community_id":null,"name":"TenantTurner","type":"unit_rental"},"status":"for_rent","suppression_flags":{"has_suppress_list_date":true,"has_suppress_foreclosure":true},"tags":["floor_plan","rental_property"],"when_indexed":"2022-08-23T05:47:39.788Z","home_photos":{"collection":[{"description":null,"href":"https://ap.rdcpix.com/4ddd5a3fbe29b64811423508333940b5l-m2103257853s.jpg","type":null,"title":null,"tags":null},{"description":null,"href":"https://ap.rdcpix.com/4ddd5a3fbe29b64811423508333940b5l-m2512899738s.jpg","type":null,"title":null,"tags":null},{"description":null,"href":"https://ap.rdcpix.com/4ddd5a3fbe29b64811423508333940b5l-m1832071835s.jpg","type":null,"title":null,"tags":null}],"count":3}},{"permalink":"226-Southampton-Ln-257_Venice_FL_34293_M56237-01866","lead_attributes":{"show_contact_an_agent":true},"branding":[{"type":"Office","photo":null,"name":"Gulf Coast Realty \u0026 Management"}],"price_reduced_date":"2021-12-09T18:01:37.617Z","price_reduced_amount":1894,"matterport":false,"virtual_tours":[{"href":"https://www.propertypanorama.com/instaview/stellar/A4519044"}],"advertisers":[{"email":"andy@choosegulfcoast.com","fulfillment_id":"0","href":null,"mls_set":"A-ORFL-281517938","name":"Andy Moore","nrds_id":null,"office":{"email":"andy@choosegulfcoast.com","fulfillment_id":"3080468","mls_set":"O-ORFL-266508871","href":null,"name":"Gulf Coast Realty \u0026 Management","phones":[{"ext":null,"number":"(941) 782-1559","primary":false,"trackable":null,"type":"Office"}]},"phones":[{"ext":null,"number":"(941) 782-1559","primary":false,"trackable":null,"type":"Home"}]}],"description":{"baths":2,"baths_full":2,"baths_full_calc":2,"baths_half":null,"baths_3qtr":null,"baths_1qtr":null,"beds":2,"garage":1,"lot_sqft":2740795,"name":null,"sqft":1675,"sub_type":null,"type":"single_family","year_built":1984,"baths_min":null,"baths_max":null,"beds_max":null,"beds_min":null,"garage_min":null,"garage_max":null,"sqft_max":null,"sqft_min":null},"flags":{"is_pending":null,"is_deal_available":null,"is_for_rent":true,"is_garage_present":true,"is_senior_community":null,"is_new_listing":false},"href":"https://www.realtor.com/realestateandhomes-detail/226-Southampton-Ln-257_Venice_FL_34293_M56237-01866","last_price_change_amount":-1894,"last_price_change_date":"2021-12-09T18:01:37.617Z","last_update_date":"2021-12-09T17:55:38Z","list_date":"2021-11-30T18:24:49Z","list_price":2105,"list_price_min":null,"list_price_max":null,"listing_id":"2937251924","location":{"address":{"city":"Venice","coordinate":{"lat":27.055715,"lon":-82.367008},"country":"USA","line":"226 Southampton Ln # 257","postal_code":"34293","state":"Florida","state_code":"FL","street_direction":null,"street_name":"Southampton","street_number":"226","street_post_direction":null,"street_suffix":"Ln","unit":"# 257"},"county":{"fips_code":"12115","name":"Sarasota","state_code":"FL"},"search_areas":[{"city":"plantation","state_code":"fl"},{"city":"venice","state_code":"fl"},{"city":"west villages","state_code":"fl"}]},"photo_count":18,"photos":[{"description":null,"href":"https://ap.rdcpix.com/c31b7978c79c96d136c45a1d3ea1ad73l-m971866278s.jpg","type":null,"title":null,"tags":null},{"description":null,"href":"https://ap.rdcpix.com/c31b7978c79c96d136c45a1d3ea1ad73l-m4060938238s.jpg","type":null,"title":null,"tags":null},{"description":null,"href":"https://ap.rdcpix.com/c31b7978c79c96d136c45a1d3ea1ad73l-m3335764578s.jpg","type":null,"title":null,"tags":null}],"pet_policy":null,"primary_photo":{"description":null,"href":"https://ap.rdcpix.com/c31b7978c79c96d136c45a1d3ea1ad73l-m971866278s.jpg","type":null},"open_houses":null,"other_listings":{"rdc":[{"listing_id":"2937251924","status":"for_rent","primary":true},{"listing_id":"616657890","status":"off_market","primary":null},{"listing_id":"807986795","status":"off_market","primary":null},{"listing_id":"613117714","status":"sold","primary":null},{"listing_id":"586698078","status":"off_market","primary":null}]},"products":null,"property_history":null,"property_id":"5623701866","source":{"agents":[{"agent_id":"281517938","agent_name":"Andy Moore"}],"id":"ORFL","listing_id":"A4519044","community_id":null,"name":"StellarMLS","type":"mls"},"status":"for_rent","suppression_flags":null,"tags":["central_air","central_heat","community_tennis_court","recreation_facilities","washer_dryer","single_story","garage_1_or_more","community_swimming_pool","waterfront","master_bedroom","floor_plan","clubhouse","golf_course","lake","hoa","groundscare"],"when_indexed":"2022-08-23T05:45:39.972Z","home_photos":{"collection":[{"description":null,"href":"https://ap.rdcpix.com/c31b7978c79c96d136c45a1d3ea1ad73l-m971866278s.jpg","type":null,"title":null,"tags":null},{"description":null,"href":"https://ap.rdcpix.com/c31b7978c79c96d136c45a1d3ea1ad73l-m4060938238s.jpg","type":null,"title":null,"tags":null},{"description":null,"href":"https://ap.rdcpix.com/c31b7978c79c96d136c45a1d3ea1ad73l-m3335764578s.jpg","type":null,"title":null,"tags":null}],"count":3}},{"permalink":"11706-Tempest-Harbor-Loop_Venice_FL_34292_M56846-97776","lead_attributes":{"show_contact_an_agent":true},"branding":[{"type":"Office","photo":null,"name":null}],"price_reduced_date":"2022-08-24T00:02:08.335Z","price_reduced_amount":80,"matterport":false,"virtual_tours":null,"advertisers":[{"email":null,"fulfillment_id":null,"href":null,"mls_set":null,"name":null,"nrds_id":null,"office":{"email":"pathlight_sarasota_zillow@leads.anyonehome.com","fulfillment_id":null,"mls_set":null,"href":null,"name":null,"phones":[{"ext":null,"number":"8555979347","primary":false,"trackable":null,"type":"primary"}]},"phones":null}],"description":{"baths":2,"baths_full":2,"baths_full_calc":2,"baths_half":null,"baths_3qtr":null,"baths_1qtr":null,"beds":4,"garage":null,"lot_sqft":null,"name":null,"sqft":1749,"sub_type":null,"type":"single_family","year_built":2006,"baths_min":null,"baths_max":null,"beds_max":null,"beds_min":null,"garage_min":null,"garage_max":null,"sqft_max":null,"sqft_min":null},"flags":{"is_pending":null,"is_deal_available":null,"is_for_rent":true,"is_garage_present":null,"is_senior_community":null,"is_new_listing":false},"href":"https://www.realtor.com/realestateandhomes-detail/11706-Tempest-Harbor-Loop_Venice_FL_34292_M56846-97776","last_price_change_amount":-80,"last_price_change_date":"2022-08-24T00:02:08.335Z","last_update_date":"2022-08-23T19:14:17Z","list_date":"2022-03-31T00:00:40Z","list_price":2145,"list_price_min":null,"list_price_max":null,"listing_id":"2941627443","location":{"address":{"city":"Venice","coordinate":{"lat":27.081985,"lon":-82.338486},"country":"USA","line":"11706 Tempest Harbor Loop","postal_code":"34292","state":"Florida","state_code":"FL","street_direction":null,"street_name":"Tempest Harbor","street_number":"11706","street_post_direction":null,"street_suffix":"Loop","unit":null},"county":{"fips_code":"12115","name":"Sarasota","state_code":"FL"},"search_areas":[{"city":"venice","state_code":"fl"}]},"photo_count":16,"photos":[{"description":null,"href":"https://ap.rdcpix.com/6b4df160d4836c270d07a84a3a79225fl-m1066910585s.jpg","type":null,"title":null,"tags":null},{"description":null,"href":"https://ap.rdcpix.com/6b4df160d4836c270d07a84a3a79225fl-m3725905468s.jpg","type":null,"title":null,"tags":null},{"description":null,"href":"https://ap.rdcpix.com/6b4df160d4836c270d07a84a3a79225fl-m3077136917s.jpg","type":null,"title":null,"tags":null}],"pet_policy":{"cats":true,"dogs":true,"text":null},"primary_photo":{"description":null,"href":"https://ap.rdcpix.com/6b4df160d4836c270d07a84a3a79225fl-m1066910585s.jpg","type":null},"open_houses":null,"other_listings":{"rdc":[{"listing_id":"2941627443","status":"for_rent","primary":true},{"listing_id":"2944437825","status":"off_market","primary":null},{"listing_id":"649714062","status":"off_market","primary":null},{"listing_id":"627369358","status":"off_market","primary":null},{"listing_id":"607296422","status":"sold","primary":null},{"listing_id":"600481790","status":"sold","primary":null},{"listing_id":"612320266","status":"sold","primary":null},{"listing_id":"600473642","status":"off_market","primary":null},{"listing_id":"550352582","status":"off_market","primary":null},{"listing_id":"586703990","status":"sold","primary":null}]},"products":null,"property_history":null,"property_id":"5684697776","source":{"agents":null,"id":"PLPM","listing_id":"20762","community_id":null,"name":"PathlightPropertyManagement","type":"unit_rental"},"status":"for_rent","suppression_flags":null,"tags":["pets_allowed","community_swimming_pool","modern_kitchen","large_kitchen","rental_property","maintenance"],"when_indexed":"2022-08-24T00:03:51.208Z","home_photos":{"collection":[{"description":null,"href":"https://ap.rdcpix.com/6b4df160d4836c270d07a84a3a79225fl-m1066910585s.jpg","type":null,"title":null,"tags":null},{"description":null,"href":"https://ap.rdcpix.com/6b4df160d4836c270d07a84a3a79225fl-m3725905468s.jpg","type":null,"title":null,"tags":null},{"description":null,"href":"https://ap.rdcpix.com/6b4df160d4836c270d07a84a3a79225fl-m3077136917s.jpg","type":null,"title":null,"tags":null}],"count":3}},{"permalink":"2650-Oceanside-St_North-Port_FL_34286_M68145-60951","lead_attributes":{"show_contact_an_agent":true},"branding":[{"type":"Office","photo":null,"name":"Coldwell Banker Sunstar Realty"}],"price_reduced_date":null,"price_reduced_amount":null,"matterport":false,"virtual_tours":[{"href":"https://www.propertypanorama.com/instaview/stellar/D6125994"}],"advertisers":[{"email":"dianalegg@comcast.net","fulfillment_id":"1204916","href":null,"mls_set":"A-ORFL-256021743","name":"DIANA LEGG","nrds_id":"256021743","office":{"email":"laurie.bradley@cbsmfl.com","fulfillment_id":"1363817","mls_set":"O-ORFL-256010008","href":"http://www.ColdwellBankerFlorida.com","name":"Coldwell Banker Sunstar Realty","phones":[{"ext":null,"number":"9414750009","primary":false,"trackable":null,"type":"Office"},{"ext":null,"number":"8006157232","primary":false,"trackable":null,"type":"Toll Free"}]},"phones":[{"ext":null,"number":"9414754362","primary":false,"trackable":null,"type":"Office"}]}],"description":{"baths":2,"baths_full":2,"baths_full_calc":2,"baths_half":null,"baths_3qtr":null,"baths_1qtr":null,"beds":3,"garage":2,"lot_sqft":10000,"name":null,"sqft":1759,"sub_type":null,"type":"single_family","year_built":2003,"baths_min":null,"baths_max":null,"beds_max":null,"beds_min":null,"garage_min":null,"garage_max":null,"sqft_max":null,"sqft_min":null},"flags":{"is_pending":null,"is_deal_available":null,"is_for_rent":true,"is_garage_present":true,"is_senior_community":null,"is_new_listing":false},"href":"https://www.realtor.com/realestateandhomes-detail/2650-Oceanside-St_North-Port_FL_34286_M68145-60951","last_price_change_amount":null,"last_price_change_date":null,"last_update_date":"2022-08-11T17:13:15Z","list_date":"2022-08-09T20:23:08Z","list_price":2000,"list_price_min":null,"list_price_max":null,"listing_id":"2946568246","location":{"address":{"city":"North Port","coordinate":{"lat":27.07752,"lon":-82.165067},"country":"USA","line":"2650 Oceanside St","postal_code":"34286","state":"Florida","state_code":"FL","street_direction":null,"street_name":"Oceanside","street_number":"2650","street_post_direction":null,"street_suffix":"St","unit":null},"county":{"fips_code":"12115","name":"Sarasota","state_code":"FL"},"search_areas":[{"city":"north port","state_code":"fl"}]},"photo_count":14,"photos":[{"description":null,"href":"https://ap.rdcpix.com/24d8fbcc1860e097309999622b3eb9ecl-m1961674107s.jpg","type":null,"title":null,"tags":null},{"description":null,"href":"https://ap.rdcpix.com/24d8fbcc1860e097309999622b3eb9ecl-m1044525819s.jpg","type":null,"title":null,"tags":null},{"description":null,"href":"https://ap.rdcpix.com/24d8fbcc1860e097309999622b3eb9ecl-m1327548273s.jpg","type":null,"title":null,"tags":null}],"pet_policy":null,"primary_photo":{"description":null,"href":"https://ap.rdcpix.com/24d8fbcc1860e097309999622b3eb9ecl-m1961674107s.jpg","type":null},"open_houses":null,"other_listings":{"rdc":[{"listing_id":"2946568246","status":"for_rent","primary":true},{"listing_id":"617243370","status":"off_market","primary":null},{"listing_id":"586385790","status":"off_market","primary":null},{"listing_id":"606492794","status":"sold","primary":null}]},"products":{"product_attributes":{"lead_phone_number.office":"(941) 475-0009","lead_phone_number.office.mapped_number":"(941) 475-0009"},"products":["core.agent","core.broker"]},"property_history":null,"property_id":"6814560951","source":{"agents":[{"agent_id":"256021743","agent_name":"Diana Legg"}],"id":"ORFL","listing_id":"D6125994","community_id":null,"name":"StellarMLS","type":"mls"},"status":"for_rent","suppression_flags":null,"tags":["central_air","central_heat","city_view","dishwasher","family_room","laundry_room","view","washer_dryer","single_story","garage_1_or_more","garage_2_or_more","waterfront","vaulted_ceiling","master_bedroom","master_suite","rental_property"],"when_indexed":"2022-08-23T05:18:52.432Z","home_photos":{"collection":[{"description":null,"href":"https://ap.rdcpix.com/24d8fbcc1860e097309999622b3eb9ecl-m1961674107s.jpg","type":null,"title":null,"tags":null},{"description":null,"href":"https://ap.rdcpix.com/24d8fbcc1860e097309999622b3eb9ecl-m1044525819s.jpg","type":null,"title":null,"tags":null},{"description":null,"href":"https://ap.rdcpix.com/24d8fbcc1860e097309999622b3eb9ecl-m1327548273s.jpg","type":null,"title":null,"tags":null}],"count":3}},{"permalink":"3144-S-San-Mateo-Dr_North-Port_FL_34288_M50411-17302","lead_attributes":{"show_contact_an_agent":true},"branding":[{"type":"Office","photo":null,"name":"Tah Florida Llc"}],"price_reduced_date":"2022-08-22T15:41:57.298Z","price_reduced_amount":320,"matterport":false,"virtual_tours":[{"href":"https://www.propertypanorama.com/instaview/stellar/T3394917"}],"advertisers":[{"email":"slugo@triconah.com","fulfillment_id":"0","href":null,"mls_set":"A-ORFL-279603801","name":"Stephany Lugo","nrds_id":null,"office":{"email":"tricontampa@gmail.com","fulfillment_id":"2952291","mls_set":"O-ORFL-781077","href":null,"name":"Tah Florida Llc","phones":[{"ext":null,"number":"8448742661","primary":false,"trackable":null,"type":"Office"}]},"phones":[{"ext":null,"number":"(978) 406-1631","primary":false,"trackable":null,"type":"Mobile"}]}],"description":{"baths":2,"baths_full":2,"baths_full_calc":2,"baths_half":null,"baths_3qtr":null,"baths_1qtr":null,"beds":3,"garage":2,"lot_sqft":10000,"name":null,"sqft":1477,"sub_type":null,"type":"single_family","year_built":2019,"baths_min":null,"baths_max":null,"beds_max":null,"beds_min":null,"garage_min":null,"garage_max":null,"sqft_max":null,"sqft_min":null},"flags":{"is_pending":null,"is_deal_available":null,"is_for_rent":true,"is_garage_present":true,"is_senior_community":null,"is_new_listing":false},"href":"https://www.realtor.com/realestateandhomes-detail/3144-S-San-Mateo-Dr_North-Port_FL_34288_M50411-17302","last_price_change_amount":-320,"last_price_change_date":"2022-08-22T15:41:57.298Z","last_update_date":"2022-08-22T15:35:01Z","list_date":"2022-08-10T19:10:59Z","list_price":2019,"list_price_min":null,"list_price_max":null,"listing_id":"2946597657","location":{"address":{"city":"North Port","coordinate":{"lat":27.049011,"lon":-82.120363},"country":"USA","line":"3144 S San Mateo Dr","postal_code":"34288","state":"Florida","state_code":"FL","street_direction":"S","street_name":"San Mateo","street_number":"3144","street_post_direction":null,"street_suffix":"Dr","unit":null},"county":{"fips_code":"12115","name":"Sarasota","state_code":"FL"},"search_areas":[{"city":"north port","state_code":"fl"}]},"photo_count":11,"photos":[{"description":null,"href":"https://ap.rdcpix.com/72f9d039a9f57fa555cfaf5749bd399al-m2675532856s.jpg","type":null,"title":null,"tags":null},{"description":null,"href":"https://ap.rdcpix.com/72f9d039a9f57fa555cfaf5749bd399al-m3907543032s.jpg","type":null,"title":null,"tags":null},{"description":null,"href":"https://ap.rdcpix.com/72f9d039a9f57fa555cfaf5749bd399al-m3272877682s.jpg","type":null,"title":null,"tags":null}],"pet_policy":{"cats":true,"dogs":true,"text":null},"primary_photo":{"description":null,"href":"https://ap.rdcpix.com/72f9d039a9f57fa555cfaf5749bd399al-m2675532856s.jpg","type":null},"open_houses":null,"other_listings":{"rdc":[{"listing_id":"2946597657","status":"for_rent","primary":true},{"listing_id":"2936225998","status":"off_market","primary":null},{"listing_id":"2935981224","status":"off_market","primary":null},{"listing_id":"2935673883","status":"off_market","primary":null},{"listing_id":"2915188602","status":"off_market","primary":null},{"listing_id":"2931383978","status":"sold","primary":null},{"listing_id":"637831370","status":"off_market","primary":null}]},"products":null,"property_history":null,"property_id":"5041117302","source":{"agents":[{"agent_id":"279603801","agent_name":"Stephany Lugo"}],"id":"ORFL","listing_id":"T3394917","community_id":null,"name":"StellarMLS","type":"mls"},"status":"for_rent","suppression_flags":null,"tags":["central_air","central_heat","pets_allowed","single_story","garage_1_or_more","garage_2_or_more","rental_property","maintenance"],"when_indexed":"2022-08-23T05:45:20.539Z","home_photos":{"collection":[{"description":null,"href":"https://ap.rdcpix.com/72f9d039a9f57fa555cfaf5749bd399al-m2675532856s.jpg","type":null,"title":null,"tags":null},{"description":null,"href":"https://ap.rdcpix.com/72f9d039a9f57fa555cfaf5749bd399al-m3907543032s.jpg","type":null,"title":null,"tags":null},{"description":null,"href":"https://ap.rdcpix.com/72f9d039a9f57fa555cfaf5749bd399al-m3272877682s.jpg","type":null,"title":null,"tags":null}],"count":3}},{"permalink":"1651-New-London-St_North-Port_FL_34288_M67237-69743","lead_attributes":{"show_contact_an_agent":true},"branding":[{"type":"Office","photo":null,"name":"REALTY BY DALE THOMAS"}],"price_reduced_date":null,"price_reduced_amount":null,"matterport":false,"virtual_tours":[{"href":"https://www.propertypanorama.com/instaview/stellar/C7464875"}],"advertisers":[{"email":"Nicole@RealEstatebyDaleThomas.com","fulfillment_id":"1288573","href":"http://www.realestatebydalethomas.com","mls_set":"A-ORFL-284502452","name":"NICOLE SMITH-MAYLE","nrds_id":"284502452","office":{"email":"nicole@realestatebydalethomas.com","fulfillment_id":"2964415","mls_set":"O-ORFL-284509140","href":"WWW.REALESTATEBYDALETHOMAS.COM","name":"REALTY BY DALE THOMAS","phones":[{"ext":null,"number":"9419798497","primary":false,"trackable":null,"type":"Office"}]},"phones":[{"ext":null,"number":"9414681964","primary":false,"trackable":null,"type":"Mobile"},{"ext":null,"number":"9412406121","primary":false,"trackable":null,"type":"Office"}]}],"description":{"baths":1,"baths_full":1,"baths_full_calc":1,"baths_half":null,"baths_3qtr":null,"baths_1qtr":null,"beds":2,"garage":null,"lot_sqft":20038,"name":null,"sqft":1288,"sub_type":null,"type":"single_family","year_built":1984,"baths_min":null,"baths_max":null,"beds_max":null,"beds_min":null,"garage_min":null,"garage_max":null,"sqft_max":null,"sqft_min":null},"flags":{"is_pending":null,"is_deal_available":null,"is_for_rent":true,"is_garage_present":null,"is_senior_community":true,"is_new_listing":false},"href":"https://www.realtor.com/realestateandhomes-detail/1651-New-London-St_North-Port_FL_34288_M67237-69743","last_price_change_amount":null,"last_price_change_date":null,"last_update_date":"2022-08-11T14:21:22Z","list_date":"2022-08-09T22:23:18Z","list_price":2100,"list_price_min":null,"list_price_max":null,"listing_id":"2946573400","location":{"address":{"city":"North Port","coordinate":{"lat":27.062635,"lon":-82.114553},"country":"USA","line":"1651 New London St","postal_code":"34288","state":"Florida","state_code":"FL","street_direction":null,"street_name":"New London","street_number":"1651","street_post_direction":null,"street_suffix":"St","unit":null},"county":{"fips_code":"12115","name":"Sarasota","state_code":"FL"},"search_areas":[{"city":"north port","state_code":"fl"}]},"photo_count":29,"photos":[{"description":null,"href":"https://ap.rdcpix.com/27909f67ba86961a0197ea33c7d39a36l-m673123174s.jpg","type":null,"title":null,"tags":null},{"description":null,"href":"https://ap.rdcpix.com/27909f67ba86961a0197ea33c7d39a36l-m773234380s.jpg","type":null,"title":null,"tags":null},{"description":null,"href":"https://ap.rdcpix.com/27909f67ba86961a0197ea33c7d39a36l-m2477498655s.jpg","type":null,"title":null,"tags":null}],"pet_policy":null,"primary_photo":{"description":null,"href":"https://ap.rdcpix.com/27909f67ba86961a0197ea33c7d39a36l-m673123174s.jpg","type":null},"open_houses":null,"other_listings":{"rdc":[{"listing_id":"2946573400","status":"for_rent","primary":true},{"listing_id":"2945782798","status":"off_market","primary":null},{"listing_id":"644469714","status":"sold","primary":null}]},"products":{"product_attributes":null,"products":["core.agent","core.broker"]},"property_history":null,"property_id":"6723769743","source":{"agents":[{"agent_id":"284502452","agent_name":"Nicole Smith-mayle"}],"id":"ORFL","listing_id":"C7464875","community_id":null,"name":"StellarMLS","type":"mls"},"status":"for_rent","suppression_flags":null,"tags":["carport","central_air","central_heat","dining_room","laundry_room","senior_community","washer_dryer","single_story","waterfront","fruit_trees","park","shopping"],"when_indexed":"2022-08-23T05:22:20.850Z","home_photos":{"collection":[{"description":null,"href":"https://ap.rdcpix.com/27909f67ba86961a0197ea33c7d39a36l-m673123174s.jpg","type":null,"title":null,"tags":null},{"description":null,"href":"https://ap.rdcpix.com/27909f67ba86961a0197ea33c7d39a36l-m773234380s.jpg","type":null,"title":null,"tags":null},{"description":null,"href":"https://ap.rdcpix.com/27909f67ba86961a0197ea33c7d39a36l-m2477498655s.jpg","type":null,"title":null,"tags":null}],"count":3}},{"permalink":"11924-Gretchen-Ave_Port-Charlotte_FL_33981_M52340-71486","lead_attributes":{"show_contact_an_agent":true},"branding":[{"type":"Office","photo":null,"name":"Tah Florida Llc"}],"price_reduced_date":"2022-08-16T00:29:02.363Z","price_reduced_amount":50,"matterport":false,"virtual_tours":[{"href":"https://www.propertypanorama.com/instaview/stellar/T3394953"}],"advertisers":[{"email":"slugo@triconah.com","fulfillment_id":"0","href":null,"mls_set":"A-ORFL-279603801","name":"Stephany Lugo","nrds_id":null,"office":{"email":"tricontampa@gmail.com","fulfillment_id":"2952291","mls_set":"O-ORFL-781077","href":null,"name":"Tah Florida Llc","phones":[{"ext":null,"number":"8448742661","primary":false,"trackable":null,"type":"Office"}]},"phones":[{"ext":null,"number":"(978) 406-1631","primary":false,"trackable":null,"type":"Mobile"}]}],"description":{"baths":2,"baths_full":2,"baths_full_calc":2,"baths_half":null,"baths_3qtr":null,"baths_1qtr":null,"beds":3,"garage":2,"lot_sqft":9999,"name":null,"sqft":1280,"sub_type":null,"type":"single_family","year_built":2007,"baths_min":null,"baths_max":null,"beds_max":null,"beds_min":null,"garage_min":null,"garage_max":null,"sqft_max":null,"sqft_min":null},"flags":{"is_pending":null,"is_deal_available":null,"is_for_rent":true,"is_garage_present":true,"is_senior_community":null,"is_new_listing":false},"href":"https://www.realtor.com/realestateandhomes-detail/11924-Gretchen-Ave_Port-Charlotte_FL_33981_M52340-71486","last_price_change_amount":-50,"last_price_change_date":"2022-08-16T00:29:02.363Z","last_update_date":"2022-08-16T00:27:48Z","list_date":"2022-08-10T13:47:10Z","list_price":2149,"list_price_min":null,"list_price_max":null,"listing_id":"2946580648","location":{"address":{"city":"Port Charlotte","coordinate":{"lat":26.925385,"lon":-82.257919},"country":"USA","line":"11924 Gretchen Ave","postal_code":"33981","state":"Florida","state_code":"FL","street_direction":null,"street_name":"Gretchen","street_number":"11924","street_post_direction":null,"street_suffix":"Ave","unit":null},"county":{"fips_code":"12015","name":"Charlotte","state_code":"FL"},"search_areas":[{"city":"port charlotte","state_code":"fl"}]},"photo_count":6,"photos":[{"description":null,"href":"https://ap.rdcpix.com/f02ee07edd4dedbe7f3eeee16cb3728cl-m426634789s.jpg","type":null,"title":null,"tags":null},{"description":null,"href":"https://ap.rdcpix.com/f02ee07edd4dedbe7f3eeee16cb3728cl-m1600968389s.jpg","type":null,"title":null,"tags":null},{"description":null,"href":"https://ap.rdcpix.com/f02ee07edd4dedbe7f3eeee16cb3728cl-m4042660691s.jpg","type":null,"title":null,"tags":null}],"pet_policy":{"cats":true,"dogs":true,"text":null},"primary_photo":{"description":null,"href":"https://ap.rdcpix.com/f02ee07edd4dedbe7f3eeee16cb3728cl-m426634789s.jpg","type":null},"open_houses":null,"other_listings":{"rdc":[{"listing_id":"2946580648","status":"for_rent","primary":true},{"listing_id":"2944999462","status":"off_market","primary":null},{"listing_id":"2941836050","status":"sold","primary":null},{"listing_id":"572797222","status":"sold","primary":null},{"listing_id":"596096274","status":"sold","primary":null}]},"products":null,"property_history":null,"property_id":"5234071486","source":{"agents":[{"agent_id":"279603801","agent_name":"Stephany Lugo"}],"id":"ORFL","listing_id":"T3394953","community_id":null,"name":"StellarMLS","type":"mls"},"status":"for_rent","suppression_flags":null,"tags":["central_air","central_heat","pets_allowed","single_story","garage_1_or_more","garage_2_or_more","rental_property","maintenance"],"when_indexed":"2022-08-23T05:39:49.518Z","home_photos":{"collection":[{"description":null,"href":"https://ap.rdcpix.com/f02ee07edd4dedbe7f3eeee16cb3728cl-m426634789s.jpg","type":null,"title":null,"tags":null},{"description":null,"href":"https://ap.rdcpix.com/f02ee07edd4dedbe7f3eeee16cb3728cl-m1600968389s.jpg","type":null,"title":null,"tags":null},{"description":null,"href":"https://ap.rdcpix.com/f02ee07edd4dedbe7f3eeee16cb3728cl-m4042660691s.jpg","type":null,"title":null,"tags":null}],"count":3}},{"permalink":"18291-Troon-Ave_Port-Charlotte_FL_33948_M60846-13187","lead_attributes":{"show_contact_an_agent":true},"branding":[{"type":"Office","photo":null,"name":"Tah Florida Llc"}],"price_reduced_date":"2022-08-22T15:41:57.298Z","price_reduced_amount":40,"matterport":false,"virtual_tours":[{"href":"https://www.propertypanorama.com/instaview/stellar/T3394951"}],"advertisers":[{"email":"slugo@triconah.com","fulfillment_id":"0","href":null,"mls_set":"A-ORFL-279603801","name":"Stephany Lugo","nrds_id":null,"office":{"email":"tricontampa@gmail.com","fulfillment_id":"2952291","mls_set":"O-ORFL-781077","href":null,"name":"Tah Florida Llc","phones":[{"ext":null,"number":"8448742661","primary":false,"trackable":null,"type":"Office"}]},"phones":[{"ext":null,"number":"(978) 406-1631","primary":false,"trackable":null,"type":"Mobile"}]}],"description":{"baths":2,"baths_full":2,"baths_full_calc":2,"baths_half":null,"baths_3qtr":null,"baths_1qtr":null,"beds":3,"garage":2,"lot_sqft":20038,"name":null,"sqft":1389,"sub_type":null,"type":"single_family","year_built":2003,"baths_min":null,"baths_max":null,"beds_max":null,"beds_min":null,"garage_min":null,"garage_max":null,"sqft_max":null,"sqft_min":null},"flags":{"is_pending":null,"is_deal_available":null,"is_for_rent":true,"is_garage_present":true,"is_senior_community":null,"is_new_listing":false},"href":"https://www.realtor.com/realestateandhomes-detail/18291-Troon-Ave_Port-Charlotte_FL_33948_M60846-13187","last_price_change_amount":-40,"last_price_change_date":"2022-08-22T15:41:57.298Z","last_update_date":"2022-08-22T15:36:08Z","list_date":"2022-08-10T13:47:10Z","list_price":1999,"list_price_min":null,"list_price_max":null,"listing_id":"2946580660","location":{"address":{"city":"Port Charlotte","coordinate":{"lat":26.998714,"lon":-82.146933},"country":"USA","line":"18291 Troon Ave","postal_code":"33948","state":"Florida","state_code":"FL","street_direction":null,"street_name":"Troon","street_number":"18291","street_post_direction":null,"street_suffix":"Ave","unit":null},"county":{"fips_code":"12015","name":"Charlotte","state_code":"FL"},"search_areas":[{"city":"port charlotte","state_code":"fl"}]},"photo_count":7,"photos":[{"description":null,"href":"https://ap.rdcpix.com/4ad676f67098bae9183b91144f16cff4l-m2007105134s.jpg","type":null,"title":null,"tags":null},{"description":null,"href":"https://ap.rdcpix.com/4ad676f67098bae9183b91144f16cff4l-m2432183461s.jpg","type":null,"title":null,"tags":null},{"description":null,"href":"https://ap.rdcpix.com/4ad676f67098bae9183b91144f16cff4l-m3255765230s.jpg","type":null,"title":null,"tags":null}],"pet_policy":{"cats":true,"dogs":true,"text":null},"primary_photo":{"description":null,"href":"https://ap.rdcpix.com/4ad676f67098bae9183b91144f16cff4l-m2007105134s.jpg","type":null},"open_houses":null,"other_listings":{"rdc":[{"listing_id":"2946580660","status":"for_rent","primary":true},{"listing_id":"2944982227","status":"off_market","primary":null},{"listing_id":"2942224835","status":"sold","primary":null},{"listing_id":"629806782","status":"off_market","primary":null}]},"products":null,"property_history":null,"property_id":"6084613187","source":{"agents":[{"agent_id":"279603801","agent_name":"Stephany Lugo"}],"id":"ORFL","listing_id":"T3394951","community_id":null,"name":"StellarMLS","type":"mls"},"status":"for_rent","suppression_flags":null,"tags":["central_air","central_heat","pets_allowed","single_story","garage_1_or_more","garage_2_or_more","rental_property","maintenance"],"when_indexed":"2022-08-23T05:29:00.243Z","home_photos":{"collection":[{"description":null,"href":"https://ap.rdcpix.com/4ad676f67098bae9183b91144f16cff4l-m2007105134s.jpg","type":null,"title":null,"tags":null},{"description":null,"href":"https://ap.rdcpix.com/4ad676f67098bae9183b91144f16cff4l-m2432183461s.jpg","type":null,"title":null,"tags":null},{"description":null,"href":"https://ap.rdcpix.com/4ad676f67098bae9183b91144f16cff4l-m3255765230s.jpg","type":null,"title":null,"tags":null}],"count":3}},{"permalink":"21269-Coachman-Ave_Port-Charlotte_FL_33952_M59610-02056","lead_attributes":{"show_contact_an_agent":true},"branding":[{"type":"Office","photo":null,"name":"ERA ADVANTAGE REALTY, INC."}],"price_reduced_date":null,"price_reduced_amount":null,"matterport":false,"virtual_tours":[{"href":"https://www.propertypanorama.com/instaview/stellar/C7465061"}],"advertisers":[{"email":"office@eraportcharlotte.com","fulfillment_id":"836798","href":null,"mls_set":"A-ORFL-274500368","name":"Joel Ament","nrds_id":"274500368","office":{"email":"joelament@earthlink.net","fulfillment_id":"107086","mls_set":"O-ORFL-274500168","href":"WWW.ERAPORTCHARLOTTE.COM","name":"ERA ADVANTAGE REALTY, INC.","phones":[{"ext":null,"number":"9412555300","primary":false,"trackable":null,"type":"Office"}]},"phones":[{"ext":null,"number":"9412555300","primary":false,"trackable":null,"type":"Office"},{"ext":null,"number":"8009405033","primary":false,"trackable":null,"type":"Toll Free"},{"ext":null,"number":"9412555351","primary":false,"trackable":null,"type":"Mobile"}]}],"description":{"baths":2,"baths_full":2,"baths_full_calc":2,"baths_half":null,"baths_3qtr":null,"baths_1qtr":null,"beds":3,"garage":2,"lot_sqft":10000,"name":null,"sqft":1309,"sub_type":null,"type":"single_family","year_built":1979,"baths_min":null,"baths_max":null,"beds_max":null,"beds_min":null,"garage_min":null,"garage_max":null,"sqft_max":null,"sqft_min":null},"flags":{"is_pending":null,"is_deal_available":null,"is_for_rent":true,"is_garage_present":true,"is_senior_community":null,"is_new_listing":false},"href":"https://www.realtor.com/realestateandhomes-detail/21269-Coachman-Ave_Port-Charlotte_FL_33952_M59610-02056","last_price_change_amount":null,"last_price_change_date":null,"last_update_date":"2022-08-15T21:16:38Z","list_date":"2022-08-15T18:47:13Z","list_price":1950,"list_price_min":null,"list_price_max":null,"listing_id":"2946736909","location":{"address":{"city":"Port Charlotte","coordinate":{"lat":27.005711,"lon":-82.098634},"country":"USA","line":"21269 Coachman Ave","postal_code":"33952","state":"Florida","state_code":"FL","street_direction":null,"street_name":"Coachman","street_number":"21269","street_post_direction":null,"street_suffix":"Ave","unit":null},"county":{"fips_code":"12015","name":"Charlotte","state_code":"FL"},"search_areas":[{"city":"port charlotte","state_code":"fl"}]},"photo_count":14,"photos":[{"description":null,"href":"https://ap.rdcpix.com/75fcb5535e68c4b84716a5bc34627f1dl-m2436930276s.jpg","type":null,"title":null,"tags":null},{"description":null,"href":"https://ap.rdcpix.com/75fcb5535e68c4b84716a5bc34627f1dl-m2036209492s.jpg","type":null,"title":null,"tags":null},{"description":null,"href":"https://ap.rdcpix.com/75fcb5535e68c4b84716a5bc34627f1dl-m1122662443s.jpg","type":null,"title":null,"tags":null}],"pet_policy":{"cats":true,"dogs":true,"text":null},"primary_photo":{"description":null,"href":"https://ap.rdcpix.com/75fcb5535e68c4b84716a5bc34627f1dl-m2436930276s.jpg","type":null},"open_houses":null,"other_listings":{"rdc":[{"listing_id":"2946736909","status":"for_rent","primary":true},{"listing_id":"2927290310","status":"sold","primary":null},{"listing_id":"558574222","status":"off_market","primary":null},{"listing_id":"556100622","status":"sold","primary":null}]},"products":{"product_attributes":null,"products":["core.agent","core.broker"]},"property_history":null,"property_id":"5961002056","source":{"agents":[{"agent_id":"274500368","agent_name":"Joel Ament"}],"id":"ORFL","listing_id":"C7465061","community_id":null,"name":"StellarMLS","type":"mls"},"status":"for_rent","suppression_flags":null,"tags":["central_air","central_heat","pets_allowed","single_story","garage_1_or_more","garage_2_or_more","rental_property","shopping"],"when_indexed":"2022-08-23T05:32:40.082Z","home_photos":{"collection":[{"description":null,"href":"https://ap.rdcpix.com/75fcb5535e68c4b84716a5bc34627f1dl-m2436930276s.jpg","type":null,"title":null,"tags":null},{"description":null,"href":"https://ap.rdcpix.com/75fcb5535e68c4b84716a5bc34627f1dl-m2036209492s.jpg","type":null,"title":null,"tags":null},{"description":null,"href":"https://ap.rdcpix.com/75fcb5535e68c4b84716a5bc34627f1dl-m1122662443s.jpg","type":null,"title":null,"tags":null}],"count":3}}],"top_real_estate_markets":{"title":"Apartments for Rent in Florida","top_markets":[{"url":"https://www.realtor.com/apartments/Miami_FL","city":"Miami Apartments for Rent","text":"Miami Apartments for Rent"},{"url":"https://www.realtor.com/apartments/Jacksonville_FL","city":"Jacksonville Apartments for Rent","text":"Jacksonville Apartments for Rent"},{"url":"https://www.realtor.com/apartments/Orlando_FL","city":"Orlando Apartments for Rent","text":"Orlando Apartments for Rent"},{"url":"https://www.realtor.com/apartments/Tampa_FL","city":"Tampa Apartments for Rent","text":"Tampa Apartments for Rent"},{"url":"https://www.realtor.com/apartments/Naples_FL","city":"Naples Apartments for Rent","text":"Naples Apartments for Rent"},{"url":"https://www.realtor.com/apartments/Miami-Beach_FL","city":"Miami Beach Apartments for Rent","text":"Miami Beach Apartments for Rent"},{"url":"https://www.realtor.com/apartments/Fort-Lauderdale_FL","city":"Fort Lauderdale Apartments for Rent","text":"Fort Lauderdale Apartments for Rent"},{"url":"https://www.realtor.com/apartments/West-Palm-Beach_FL","city":"West Palm Beach Apartments for Rent","text":"West Palm Beach Apartments for Rent"},{"url":"https://www.realtor.com/apartments/Boca-Raton_FL","city":"Boca Raton Apartments for Rent","text":"Boca Raton Apartments for Rent"},{"url":"https://www.realtor.com/apartments/Hollywood_FL","city":"Hollywood Apartments for Rent","text":"Hollywood Apartments for Rent"},{"url":"https://www.realtor.com/apartments/Sarasota_FL","city":"Sarasota Apartments for Rent","text":"Sarasota Apartments for Rent"},{"url":"https://www.realtor.com/apartments/Delray-Beach_FL","city":"Delray Beach Apartments for Rent","text":"Delray Beach Apartments for Rent"},{"url":"https://www.realtor.com/apartments/Doral_FL","city":"Doral Apartments for Rent","text":"Doral Apartments for Rent"},{"url":"https://www.realtor.com/apartments/Sunny-Isles-Beach_FL","city":"Sunny Isles Beach Apartments for Rent","text":"Sunny Isles Beach Apartments for Rent"},{"url":"https://www.realtor.com/apartments/Fort-Myers_FL","city":"Fort Myers Apartments for Rent","text":"Fort Myers Apartments for Rent"},{"url":"https://www.realtor.com/apartments/Pompano-Beach_FL","city":"Pompano Beach Apartments for Rent","text":"Pompano Beach Apartments for Rent"},{"url":"https://www.realtor.com/apartments/Clearwater_FL","city":"Clearwater Apartments for Rent","text":"Clearwater Apartments for Rent"},{"url":"https://www.realtor.com/apartments/Cape-Coral_FL","city":"Cape Coral Apartments for Rent","text":"Cape Coral Apartments for Rent"},{"url":"https://www.realtor.com/apartments/Kissimmee_FL","city":"Kissimmee Apartments for Rent","text":"Kissimmee Apartments for Rent"},{"url":"https://www.realtor.com/apartments/Pembroke-Pines_FL","city":"Pembroke Pines Apartments for Rent","text":"Pembroke Pines Apartments for Rent"},{"url":"https://www.realtor.com/apartments/Bradenton_FL","city":"Bradenton Apartments for Rent","text":"Bradenton Apartments for Rent"},{"url":"https://www.realtor.com/apartments/Plantation_Broward-County_FL","city":"Plantation Apartments for Rent","text":"Plantation Apartments for Rent"},{"url":"https://www.realtor.com/apartments/Hallandale-Beach_FL","city":"Hallandale Beach Apartments for Rent","text":"Hallandale Beach Apartments for Rent"},{"url":"https://www.realtor.com/apartments/Boynton-Beach_FL","city":"Boynton Beach Apartments for Rent","text":"Boynton Beach Apartments for Rent"},{"url":"https://www.realtor.com/apartments/Aventura_FL","city":"Aventura Apartments for Rent","text":"Aventura Apartments for Rent"},{"url":"https://www.realtor.com/apartments/Coral-Springs_FL","city":"Coral Springs Apartments for Rent","text":"Coral Springs Apartments for Rent"},{"url":"https://www.realtor.com/apartments/Vero-Beach_FL","city":"Vero Beach Apartments for Rent","text":"Vero Beach Apartments for Rent"},{"url":"https://www.realtor.com/apartments/Wellington_FL","city":"Wellington Apartments for Rent","text":"Wellington Apartments for Rent"}]},"popular_searches":null,"property_types":null},"status_code":200,"seo":{"metadata":{"title":"Sarasota County, FL Houses \u0026 Single Family Homes For Rent | realtor.com","description":"See all 3 apartments and houses for rent in Sarasota County, FL, including cheap, affordable, luxury and pet-friendly rentals. View floor plans, photos, prices and find the perfect rental today.","canonical_url":"https://www.realtor.com/apartments/Sarasota-County_FL","header_1":"Sarasota County, FL Houses \u0026 Single Family Homes For Rent","deep_links":{"ios":"ios-app://336698281/move-rdc/www.realtor.com/apartments/Sarasota-County_FL","android":"android-app://com.move.realtor/move-rdc/www.realtor.com/apartments/Sarasota-County_FL"}},"snippets":{"title":{"text":"Homes for Rent in Sarasota County, FL"},"body":{"text":"There are 3 active homes for rent in Sarasota County, which spend an average of 49 days on the market. Some of the nearby neighborhoods near Sarasota County are {neighborhood_1}, {neighborhood_2}, {neighborhood_3}, and {neighborhood_4}. You may also be interested in homes that are for rent in the nearby ZIP codes of {postal_code_1}, {postal_code_2}, or in neighboring cities, such as {city_1}, {city_2}, {city_3}, or {city_4}.","data_points":{"neighborhood_1":{"name":"Plantation","url":"https://www.realtor.com/apartments/Plantation_Venice_FL"},"neighborhood_2":{"name":"Old Englewood Village","url":"https://www.realtor.com/apartments/Old-Englewood-Village_Englewood_FL"},"neighborhood_3":{"name":"Gran Paradiso","url":"https://www.realtor.com/apartments/Gran-Paradiso_Venice_FL"},"neighborhood_4":{"name":"Arlington Park","url":"https://www.realtor.com/apartments/Arlington-Park_Sarasota_FL"},"postal_code_1":{"name":"34293","url":"https://www.realtor.com/apartments/34293"},"postal_code_2":{"name":"33981","url":"https://www.realtor.com/apartments/33981"},"city_1":{"name":"Sarasota","url":"https://www.realtor.com/apartments/Sarasota_FL"},"city_2":{"name":"Bradenton","url":"https://www.realtor.com/apartments/Bradenton_FL"},"city_3":{"name":"Port Charlotte","url":"https://www.realtor.com/apartments/Port-Charlotte_FL"},"city_4":{"name":"North Port","url":"https://www.realtor.com/apartments/North-Port_FL"}}}}}},"customSearchType":"","isExpandSearch":true,"expandSearchTotal":3,"market_trends":{"active_listing_count":1534,"active_listing_count_direction":"up","median":{"listing_price":417000,"age_days":49,"listing_price_sqft":298,"rental_listing_price":2883},"asking_to_sold_price_percent_change":-0.1438848920863336},"schoolModuleResults":{"elementary":{"schools":[{"id":"0717182731","name":"Ashton Elementary School","rating":10,"slug_id":"Ashton-Elementary-School-0717182731","location":{"city":"Sarasota","state":"FL","city_slug_id":"Sarasota_FL"}},{"id":"0717182611","name":"Southside Elementary School","rating":10,"slug_id":"Southside-Elementary-School-0717182611","location":{"city":"Sarasota","state":"FL","city_slug_id":"Sarasota_FL"}},{"id":"0717182561","name":"Phillippi Shores Elementary School","rating":9,"slug_id":"Phillippi-Shores-Elementary-School-0717182561","location":{"city":"Sarasota","state":"FL","city_slug_id":"Sarasota_FL"}},{"id":"0717182861","name":"Taylor Ranch Elementary School","rating":9,"slug_id":"Taylor-Ranch-Elementary-School-0717182861","location":{"city":"Venice","state":"FL","city_slug_id":"Venice_FL"}},{"id":"0717252641","name":"Tatum Ridge Elementary School","rating":9,"slug_id":"Tatum-Ridge-Elementary-School-0717252641","location":{"city":"Sarasota","state":"FL","city_slug_id":"Sarasota_FL"}},{"id":"0717182851","name":"Lakeview Elementary School","rating":9,"slug_id":"Lakeview-Elementary-School-0717182851","location":{"city":"Sarasota","state":"FL","city_slug_id":"Sarasota_FL"}},{"id":"0717182631","name":"Venice Elementary School","rating":9,"slug_id":"Venice-Elementary-School-0717182631","location":{"city":"Venice","state":"FL","city_slug_id":"Venice_FL"}},{"id":"0717182421","name":"Laurel Nokomis School","rating":8,"slug_id":"Laurel-Nokomis-School-0717182421","location":{"city":"Nokomis","state":"FL","city_slug_id":"Nokomis_FL"}},{"id":"0717182661","name":"Gulf Gate Elementary School","rating":8,"slug_id":"Gulf-Gate-Elementary-School-0717182661","location":{"city":"Sarasota","state":"FL","city_slug_id":"Sarasota_FL"}}],"total":34},"middle":{"schools":[{"id":"0717182461","name":"Sarasota Middle School","rating":9,"slug_id":"Sarasota-Middle-School-0717182461","location":{"city":"Sarasota","state":"FL","city_slug_id":"Sarasota_FL"}},{"id":"0717182951","name":"Sarasota School Of Arts/Sciences","rating":9,"slug_id":"Sarasota-School-Of-Arts$Sciences-0717182951","location":{"city":"Sarasota","state":"FL","city_slug_id":"Sarasota_FL"}},{"id":"0717182421","name":"Laurel Nokomis School","rating":8,"slug_id":"Laurel-Nokomis-School-0717182421","location":{"city":"Nokomis","state":"FL","city_slug_id":"Nokomis_FL"}},{"id":"0717239211","name":"Student Leadership Academy","rating":8,"slug_id":"Student-Leadership-Academy-0717239211","location":{"city":"Venice","state":"FL","city_slug_id":"Venice_FL"}},{"id":"0717337401","name":"Sky Academy Venice","rating":8,"slug_id":"Sky-Academy-Venice-0717337401","location":{"city":"Venice","state":"FL","city_slug_id":"Venice_FL"}},{"id":"0717324151","name":"Imagine School At North Port","rating":7,"slug_id":"Imagine-School-At-North-Port-0717324151","location":{"city":"North Port","state":"FL","city_slug_id":"North-Port_FL"}},{"id":"0717182521","name":"Brookside Middle School","rating":7,"slug_id":"Brookside-Middle-School-0717182521","location":{"city":"Sarasota","state":"FL","city_slug_id":"Sarasota_FL"}},{"id":"0717239201","name":"Sarasota Suncoast Academy","rating":7,"slug_id":"Sarasota-Suncoast-Academy-0717239201","location":{"city":"Sarasota","state":"FL","city_slug_id":"Sarasota_FL"}},{"id":"0717219811","name":"Island Village Montessori School","rating":7,"slug_id":"Island-Village-Montessori-School-0717219811","location":{"city":"VENICE","state":"FL","city_slug_id":"Venice_FL"}}],"total":23},"high":{"schools":[{"id":"0717324141","name":"Suncoast Polytechnical High School","rating":8,"slug_id":"Suncoast-Polytechnical-High-School-0717324141","location":{"city":"Sarasota","state":"FL","city_slug_id":"Sarasota_FL"}},{"id":"0717324151","name":"Imagine School At North Port","rating":7,"slug_id":"Imagine-School-At-North-Port-0717324151","location":{"city":"North Port","state":"FL","city_slug_id":"North-Port_FL"}},{"id":"0717219811","name":"Island Village Montessori School","rating":7,"slug_id":"Island-Village-Montessori-School-0717219811","location":{"city":"VENICE","state":"FL","city_slug_id":"Venice_FL"}},{"id":"0717182601","name":"Riverview High School","rating":6,"slug_id":"Riverview-High-School-0717182601","location":{"city":"Sarasota","state":"FL","city_slug_id":"Sarasota_FL"}},{"id":"0717182641","name":"Venice Senior High School","rating":6,"slug_id":"Venice-Senior-High-School-0717182641","location":{"city":"Venice","state":"FL","city_slug_id":"Venice_FL"}},{"id":"0717216161","name":"North Port High School","rating":5,"slug_id":"North-Port-High-School-0717216161","location":{"city":"North Port","state":"FL","city_slug_id":"North-Port_FL"}},{"id":"0717219751","name":"Sarasota Military Academy","rating":5,"slug_id":"Sarasota-Military-Academy-0717219751","location":{"city":"Sarasota","state":"FL","city_slug_id":"Sarasota_FL"}},{"id":"0717182501","name":"Sarasota High School","rating":4,"slug_id":"Sarasota-High-School-0717182501","location":{"city":"Sarasota","state":"FL","city_slug_id":"Sarasota_FL"}},{"id":"0717182821","name":"Booker High School","rating":3,"slug_id":"Booker-High-School-0717182821","location":{"city":"Sarasota","state":"FL","city_slug_id":"Sarasota_FL"}}],"total":15},"private":{"schools":[{"id":"0717226361","name":"Out-Of-Door Academy","rating":null,"slug_id":"Out-Of-Door-Academy-0717226361","location":{"city":"Sarasota","state":"FL","city_slug_id":"Sarasota_FL"}},{"id":"0717350351","name":"Out Of Door Academy-Upper School","rating":null,"slug_id":"Out-Of-Door-Academy-Upper-School-0717350351","location":{"city":"Sarasota","state":"FL","city_slug_id":"Sarasota_FL"}},{"id":"0717188961","name":"Cardinal Mooney Catholic High School","rating":null,"slug_id":"Cardinal-Mooney-Catholic-High-School-0717188961","location":{"city":"Sarasota","state":"FL","city_slug_id":"Sarasota_FL"}},{"id":"0717329631","name":"Beyond the Spectrum","rating":null,"slug_id":"Beyond-the-Spectrum-0717329631","location":{"city":"Lakewood Ranch","state":"FL","city_slug_id":"Lakewood-Ranch_FL"}},{"id":"0717190661","name":"Sarasota Christian School","rating":null,"slug_id":"Sarasota-Christian-School-0717190661","location":{"city":"Sarasota","state":"FL","city_slug_id":"Sarasota_FL"}},{"id":"0717194011","name":"The Tabernacle Christian School","rating":null,"slug_id":"The-Tabernacle-Christian-School-0717194011","location":{"city":"Sarasota","state":"FL","city_slug_id":"Sarasota_FL"}},{"id":"0717197441","name":"Venice Christian School","rating":null,"slug_id":"Venice-Christian-School-0717197441","location":{"city":"Venice","state":"FL","city_slug_id":"Venice_FL"}},{"id":"0717188951","name":"Incarnation Catholic School","rating":null,"slug_id":"Incarnation-Catholic-School-0717188951","location":{"city":"Sarasota","state":"FL","city_slug_id":"Sarasota_FL"}},{"id":"0717195631","name":"The NewGate-Field School","rating":null,"slug_id":"The-NewGate-Field-School-0717195631","location":{"city":"Sarasota","state":"FL","city_slug_id":"Sarasota_FL"}}],"total":63},"university":[{"lid":"00000001104483870405","name":"Ringling College of Art and Design","slug_id":"Ringling-College-Of-Art-And-Design-00000001104483870405","city":"Sarasota","city_slug_id":"Sarasota_FL","state_code":"FL"},{"lid":"00000001104485015919","name":"New College of Florida","slug_id":"New-College-Of-Florida-00000001104485015919","city":"Sarasota","city_slug_id":"Sarasota_FL","state_code":"FL"}],"district":{"districts":[{"id":"06160000801","name":"Sarasota","rating":null,"slug_id":"Sarasota-06160000801","location":{"city":"Sarasota","state":"FL","city_slug_id":"Sarasota_FL"}}],"total":1},"status_code":200},"articles":[{"post_id":"714804","canonical":"https://www.realtor.com/advice/rent/landlord-or-renter-who-has-to-handle-noisy-neighbors/","seo_url":"/advice/rent/landlord-or-renter-who-has-to-handle-noisy-neighbors/","title":"Landlord or Renter: Who Has To Handle Noisy Neighbors?","status":"publish","hide_mid_ad":"No","hide_viglink":"No","hide_publish_date":"No","map_details":"MAP DATA NOT AVAILABLEArray Count","body":"\u003cp\u003eWeve all been there: silently fuming while desperately trying to fall asleep, get work done, or just go about the day in peace as a neighbor shatters the silence with some racket. The deafening music, the raised voices, unrelenting hammering, or other distracting noises can become a nightmare, especially in a building where you're in close proximityor even sharing wallswith your neighbors.\u003c/p\u003e\n\u003cp\u003eIf you own your home, youre going to have to figure out how to handle the noise pollution yourselfbut what if you rent? Whose job is it to curb the commotion, yours or your landlord's?\u003c/p\u003e\n\u003cp\u003e\u003cscript src=\"https://www.buzzsprout.com/214131/10206675-123-one-team-s-trifecta-power-move-on-rock-the-block-boosts-their-home-value.js?container_id=buzzsprout-player-10206675\u0026player=small\" type=\"text/javascript\" charset=\"utf-8\"\u003e\u003c/script\u003e\u003c/p\u003e\n\u003cp\u003eKeeping residential noise to a dull roar has become especially prevalent as more of us have moved to working from home. In fact, all kinds of noise ordinances have cropped up in the past few years. In Boulder, CO, for example, it is now illegal to make any noise above \u003ca href=\"https://bouldercityreview.com/news/lets-not-get-loud-new-city-ordinance-limits-sound-levels-68215/\"\u003e70 decibels\u003c/a\u003e in a residential area. In communities across California, Illinois, New York, Massachusetts, and Arizona, regulations against excessive leaf blower noise have been instituted.\u003c/p\u003e\n\u003cp\u003eAnd while some of these rules may seem extreme, studies show that noise pollution does more than just bug people; it also affects their mental health. (\u003ca href=\"https://ehp.niehs.nih.gov/doi/10.1289/ehp.1409400\" target=\"_blank\" rel=\"noopener\"\u003eOne study\u003c/a\u003e found that people in noisy neighborhoods were 25% more likely to be depressed.)\u003c/p\u003e\n\u003cp\u003eBelow, we broach this touchy subject and provide clarity for renters who find themselves in this situation. Here's how to deal with noisy neighbors and what to do if the problem isn't being resolved.\u003c/p\u003e\n\u003ch2 id=\"landlord-or-renter-it-depends\"\u003eLandlord or renter? It depends!\u003c/h2\u003e\n\u003cp\u003eLaws vary by state, and different types of residences also have to be taken into consideration.\u003c/p\u003e\n\u003cp\u003eThe situation changes depending on whether youre talking about a duplex or multifamily property, or a single-family rental home, says \u003cstrong\u003eJacob Naig\u003c/strong\u003e, owner of We Buy Houses in Des Moines, IA. In a single-family home, if the neighbor is having late-night parties or causing a general noise disturbance, the occupier should address the situation with the neighbor politely and then place a call to the police if they dont comply.\u003c/p\u003e\n\u003cp\u003eBut if its a large apartment or anywhere that an interior wall is shared, the dynamics change.\u003c/p\u003e\n\u003cp\u003eI would still suggest trying to talk to the neighbor first, and see if you can resolve the situation,\" says Naig. \"If it doesnt work, the landlord will have to step in. Vacancy costs every landlord, and theyll do what they can so they dont have to turn over the units.\u003c/p\u003e\n\u003cp\u003eNo matter where you live, you should read the fine print of your lease agreement, and add any clauses regarding noise that you foresee being relevant.\u003c/p\u003e\n\u003cp\u003eIn Missouri, for example, the landlord-tenant law does not specify that the landlord has to deal with a noisy tenant, says \u003cstrong\u003eBob Scott\u003c/strong\u003e, founder of Sell Land, based in Missouri. But if you specify beforehand in the lease agreement that your landlord should deal with noisy neighbors, then they will be legally obligated to enforce this provision if they signed the agreement.\u003c/p\u003e\n\u003ch2 id=\"what-to-do-if-the-ruckus-wont-stop\"\u003eWhat to do if the ruckus won't stop\u003c/h2\u003e\n\u003cp\u003eAs a renter, if you find yourself in an unmanageable situation with a noisy neighbor, there are several ways to address the problem, without requiring a change of address.\u003c/p\u003e\n\u003cp\u003e\"The tenants who live in a rental house have the right to quiet, says \u003cstrong\u003eBen Fisher\u003c/strong\u003e, a luxury real estate specialist at the Fisher Group in Park City, UT. Landlords are ultimately responsible for resolving inconveniences created by loud neighbors.\" So your first step should be to contact the landlord and report the excessive noise.\u003c/p\u003e\n\u003cp\u003eYou should also look up your city's laws about noise. Many areas have designated quiet hours or decibel noise limits. So if your city's quiet hours run from 10 p.m. to 7 a.m., keep a log of every time your neighbor is practicing tuba inside of those hours. You can present this log as further proof that your neighbor is breaking the law.\u003c/p\u003e\n\u003cp\u003eIf going to your landlord proves futile and the ruckus won't stop, the next step is to contact the police. This strategy will be most effective when the noise is actually happening.\u003c/p\u003e\n\u003cp\u003eUltimately though, you may just have to move.\u003c/p\u003e\n\u003cp\u003eYou are free to leave your rental without any further responsibility in such a case if you have provided a proper amount of notice, Fisher says.\u003c/p\u003e\n","modified":"2022-08-22T22:07:43+00:00","published":"2022-08-21T21:30:13+00:00","slug":"landlord-or-renter-who-has-to-handle-noisy-neighbors","author":{"ID":827,"name":"Kathleen Willcox","slug":"kwillcox","display_name":"Kathleen Willcox","description":"Kathleen Willcox is a journalist who covers real estate, travel, and food and wine. She lives in Saratoga Springs, NY.","twitter_contact":"@SustainableKW"},"category":{"name":"Rent","parent":"Advice"},"featured_image":{"ID":"750490","source_ngi":"https://na.rdcpix.com/f031bcdc8843981c2d7465a3335d1e8cw-c4216545332srd_q80.jpg","source_mobile":"https://na.rdcpix.com/f031bcdc8843981c2d7465a3335d1e8cw-c4216545332rd-w300_h300_r4_q80.jpg","source_mobile_retina":"https://na.rdcpix.com/f031bcdc8843981c2d7465a3335d1e8cw-c4216545332rd-w506_h284_r4_q80.jpg","source_desktop":"https://na.rdcpix.com/f031bcdc8843981c2d7465a3335d1e8cw-c4216545332rd-w628_h354_r4_q80.jpg","source_desktop_retina":"https://na.rdcpix.com/f031bcdc8843981c2d7465a3335d1e8cw-c4216545332rd-w1024_h1024_r4_q80.jpg","source_thumbnail":"https://na.rdcpix.com/f031bcdc8843981c2d7465a3335d1e8cw-c4216545332rd-w145_h81_r4_q80.jpg","source_thumbnail_retina":"https://na.rdcpix.com/f031bcdc8843981c2d7465a3335d1e8cw-c4216545332rd-w290_h164_r4_q80.jpg","credit":"Realtor.com / Getty Images","type":"image","alt_text":"noisy neighbors-100"},"related":[{"img_src_retina":"https://na.rdcpix.com/6e46febf8ca03efa1d88c297a9a19d54w-c3164005002rd-w506_h284_r4_q80.jpg","seo_url":"/news/trends/i-hate-open-shelving/","post_id":"495709","attribution":{},"img_alt":"update-open-shelving","title":"I Hate Open Shelving in the Kitchen, Case Closed","img_src":"https://na.rdcpix.com/6e46febf8ca03efa1d88c297a9a19d54w-c3164005002rd-w300_h300_r4_q80.jpg"},{"img_src_retina":"https://na.rdcpix.com/3cda55c90252bbee5c402ed7bd77d1e0w-c2101111274rd-w506_h284_r4_q80.jpg","seo_url":"/advice/buy/is-the-worst-over-new-reality-of-buying-a-home-today/","post_id":"749548","attribution":{},"img_alt":"home-selling-buying-climate-today-trends","title":"Is the Worst Over? 4 (Mostly) Bright, New Realities of Buying a Home Today","img_src":"https://na.rdcpix.com/3cda55c90252bbee5c402ed7bd77d1e0w-c2101111274rd-w300_h300_r4_q80.jpg"},{"img_src_retina":"https://na.rdcpix.com/7d8d601b9a27c884735d73623a09653bw-c306071180rd-w506_h284_r4_q80.jpg","seo_url":"/advice/rent/noisy-neighbors-apartment-sound-tricks/","post_id":"417523","attribution":{},"img_alt":"noisy-upstairs-neighbors","title":"How to Deal With Noisy Upstairs Neighbors: 8 Fiercely Clever Tricks","img_src":"https://na.rdcpix.com/7d8d601b9a27c884735d73623a09653bw-c306071180rd-w300_h300_r4_q80.jpg"}],"tags":["bad neighbors","landlord","renter's rights"],"tag_details":[{"name":"bad neighbors","id":298,"slug":"bad-neighbors"},{"name":"landlord","id":7505,"slug":"landlord"},{"name":"renter's rights","id":3797,"slug":"renters-rights-2"}],"seo_focus":"Landlord or Ren","seo_title":"Landlord or Renter: Who Has To Handle Noisy Neighbors?","seo_desc":"We've all been there: fuming while a neighbor shatters the silence with some loud racket. So whose job is it to curb the commotion, yours or your landlord's?","attribution":null,"sponsored_content":"false","bar_chart_details":{"title":"","data":null},"pie_chart_details":{"title":"","data":null},"image_gallery_data":[{"img_url":null,"caption":null,"credit":null}],"exclude_in_rss_feed":false,"delay_in_rss_feeds":"2022-08-21T21:30:13+00:00","created":"2022-02-23T22:13:51.373Z","location_details":null},{"post_id":"95877","canonical":"https://www.realtor.com/advice/rent/how-often-can-my-landlord-show-my-apartment-2/","seo_url":"/advice/rent/how-often-can-my-landlord-show-my-apartment-2/","title":"Notice of Entry, and Other Rules Your Landlord Needs to Follow","status":"publish","body":"\u003cp\u003eWith a rental lease set to expire, most landlords want to show the apartment as often as possible, which means they'll need a notice of entry to get into your place. They'll beeager to find new renters, but the law states they can't justunlock your door at any time and pop in for a visit. They also aren't allowed to show the apartmentsomany times that it creates a nuisance for you and disrupts your life.\u003c/p\u003e\n\u003cp\u003eIf you're a renter, read on for the rules of landlord entry, so you know what to expect.\u003c/p\u003e\n\u003ch2 id=\"landlord-notice-of-entry\"\u003eLandlord notice of entry\u003c/h2\u003e\n\u003cp\u003eLandlords are legally obligated to provide a renter with notice that they'll be entering the premisesfor\u003cem\u003eany\u003c/em\u003ereason. Whether that's to show the property to a potential renter or to fix aleaky faucet, the law is clear: Legal tenants have the right to quiet enjoyment of their home.\u003c/p\u003e\n\u003cp\u003e\"The landlord must provide reasonable notice in writing (generally, 24 hours) of his intent to enterand to do itonly during normal business hours,\" explains\u003cstrong\u003eBryan Zuetel\u003c/strong\u003e, a Realtor and real estate attorney from Irvine, CA.If a tenant is home and consents to entry, the 24-hour notice can be waived. Then again, it is OK for a tenant to deny entry to their landlord if they show up unannounced.\u003c/p\u003e\n\u003cp\u003eIf the landlord intends to rent or sell the property to someone new, they may ask you to allow additional showings, Zuetel says. And depending on what's spelled out in yourlease agreement, you may have to comply. \"For example, under certain conditions, a landlord may require that the tenant permit a weekend open house during regular business hours, and the landlord may provide oral notice of entry to the tenant,\" he says.\u003c/p\u003e\n\u003cp\u003eSo pull out the paperwork you signed if you're worried that your landlord is crossing the line. Landlords who are following those guidelines are probably in the clear.\u003c/p\u003e\n\u003ch2 id=\"how-often-can-a-landlord-show-an-apartment\"\u003eHow often can alandlord show anapartment?\u003c/h2\u003e\n\u003cp\u003eRental law does not specifically stipulate a maximum number of timesa landlord is allowed to show an apartment to prospective tenants. It does, however, provide some cover for tenants. \"The landlord may not abuse the right of access, or use it to harass the tenant,\" Zuetel explains.\u003c/p\u003e\n\u003cp\u003eThat might sound vague, but if you do feel like your landlord is abusing the right of access and bothering you too often, you should try talking to them first, before calling an attorney. \"Let themknow that you are feeling stressed fromall the showings and ask for a break for a few daysthat seems more than reasonable,\" says\u003cstrong\u003eHolly Pasut\u003c/strong\u003e, a Realtor with Hines and Associates Realty in Cornelius, NC. If that doesn't help, you can then seek legal action.\u003c/p\u003e\n\u003cp\u003eHere's more on the rights of tenants who find out their \u003ca href=\"https://www.realtor.com/advice/rent/my-landlord-is-selling/\" target=\"_blank\" rel=\"noopener noreferrer\"\u003elandlord is selling their house\u003c/a\u003e.\u003c/p\u003e\n","modified":"2022-08-18T00:47:28+00:00","published":"2022-08-16T11:00:53+00:00","slug":"how-often-can-my-landlord-show-my-apartment-2","excerpt":"Q: How often can my landlord show our apartment? While we get 24 hour notice, and it is between 8 and 5, it has been shown more than 25 times in the last month and a half. This past week has had showings every day. I heard about the \"quiet enjoyment\" law, and was wondering if this is a proper time t","author":{"ID":467,"name":"Jeanne Sager","slug":"jsager","description":"Jeanne Sager has strung words together for the New York Times, Vice, and more. She writes and photographs people from her home in upstate New York.","twitter_contact":"JeanneSager","display_name":"Jeanne Sager"},"category":{"name":"Rent","parent":"Advice"},"featured_image":{"source_thumbnail_retina":"https://na.rdcpix.com/1060405474/d6e5a494151545c7094de494ed374685w-c0rd-w290_h164_r4_q80.jpg","source_mobile":"https://na.rdcpix.com/1060405474/d6e5a494151545c7094de494ed374685w-c0rd-w300_h300_r4_q80.jpg","source_thumbnail":"https://na.rdcpix.com/1060405474/d6e5a494151545c7094de494ed374685w-c0rd-w145_h81_r4_q80.jpg","alt_text":"knocking-on-door","source_desktop":"https://na.rdcpix.com/1060405474/d6e5a494151545c7094de494ed374685w-c0rd-w628_h354_r4_q80.jpg","source_mobile_retina":"https://na.rdcpix.com/1060405474/d6e5a494151545c7094de494ed374685w-c0rd-w506_h284_r4_q80.jpg","source_ngi":"http://na.rdcpix.com/1060405474/d6e5a494151545c7094de494ed374685w-c0xd-w640_h480_q80.jpg","ID":"399013","source_desktop_retina":"https://na.rdcpix.com/1060405474/d6e5a494151545c7094de494ed374685w-c0rd-w1024_h1024_r4_q80.jpg","credit":"KatarzynaBialasiewicz/iStock","type":"image"},"tags":["apartment","landlord-tenant problems","moving","rentals","renting","updates"],"seo_focus":"notice of entry","seo_title":"Notice of Entry and Other Rules Your Landlord Needs to Follow","seo_desc":"Landlords may be eager to find new renters, but they can't just unlock your door at any time and pop in for a visitthey need a notice of entry.","attribution":null,"created":"2016-08-30T21:09:55.244Z","sponsored_content":"false","related":[{"img_src_retina":"https://na.rdcpix.com/020f697d45c56108aada5682259c7415w-c3223642232rd-w506_h284_r4_q80.jpg","seo_url":"/advice/buy/phrases-home-buyers-should-never-include-in-offer-letter/","post_id":"502807","attribution":{},"img_alt":"These Phrases Could Doom Your Offer Letter","title":"6 Fatal Phrases Home Buyers Should Never Include in Their Offer LetterEver","img_src":"https://na.rdcpix.com/020f697d45c56108aada5682259c7415w-c3223642232rd-w300_h300_r4_q80.jpg"},{"img_src_retina":"https://na.rdcpix.com/811cb7f4c2e954ea521cbdec9e120da8w-c2996724006rd-w506_h284_r4_q80.jpg","seo_url":"/advice/buy/things-to-do-before-making-an-offer-on-a-house/","post_id":"571018","attribution":{},"img_alt":"found-the-one-01","title":"Found The One? 10 Things To Do Before Making an Offer on a House","img_src":"https://na.rdcpix.com/811cb7f4c2e954ea521cbdec9e120da8w-c2996724006rd-w300_h300_r4_q80.jpg"},{"img_src_retina":"https://na.rdcpix.com/5d80e6bf30c7fb4f6fc8b160e5f95842w-c4234753987rd-w506_h284_r4_q80.jpg","seo_url":"/advice/sell/real-estate-commission-explained/","post_id":"197841","attribution":{},"img_alt":"realtor-fees-commission-v2","title":"The Real Estate Commission: How Much Are Realtor Fees?","img_src":"https://na.rdcpix.com/5d80e6bf30c7fb4f6fc8b160e5f95842w-c4234753987rd-w300_h300_r4_q80.jpg"}],"tags_internal":["SEO"],"pie_chart_details":{"data":null,"title":""},"hide_mid_ad":"No","bar_chart_details":{"data":null,"title":""},"hide_viglink":"Yes","location_details":null,"hide_publish_date":"No","tag_details":[{"name":"apartment","id":7699,"slug":"apartment"},{"name":"landlord-tenant problems","id":2463,"slug":"landlord-tenant-problems"},{"name":"moving","id":3030,"slug":"moving"},{"name":"rentals","id":3794,"slug":"rentals"},{"name":"renting","id":3799,"slug":"renting"},{"name":"updates","id":12061,"slug":"updates"}],"image_gallery_data":[{"img_url":null,"caption":null,"credit":null}],"map_details":"MAP DATA NOT AVAILABLEArray Count","exclude_in_rss_feed":true,"delay_in_rss_feeds":"2022-08-16T11:00:53+00:00"}],"searchError":null,"popularSearches":null,"nearbyAreas":{},"propTypesModuleResults":null,"topRealEstateResults":{"title":"Apartments for Rent in Florida","top_markets":[{"url":"https://www.realtor.com/apartments/Miami_FL","city":"Miami Apartments for Rent","text":"Miami Apartments for Rent"},{"url":"https://www.realtor.com/apartments/Jacksonville_FL","city":"Jacksonville Apartments for Rent","text":"Jacksonville Apartments for Rent"},{"url":"https://www.realtor.com/apartments/Orlando_FL","city":"Orlando Apartments for Rent","text":"Orlando Apartments for Rent"},{"url":"https://www.realtor.com/apartments/Tampa_FL","city":"Tampa Apartments for Rent","text":"Tampa Apartments for Rent"},{"url":"https://www.realtor.com/apartments/Naples_FL","city":"Naples Apartments for Rent","text":"Naples Apartments for Rent"},{"url":"https://www.realtor.com/apartments/Miami-Beach_FL","city":"Miami Beach Apartments for Rent","text":"Miami Beach Apartments for Rent"},{"url":"https://www.realtor.com/apartments/Fort-Lauderdale_FL","city":"Fort Lauderdale Apartments for Rent","text":"Fort Lauderdale Apartments for Rent"},{"url":"https://www.realtor.com/apartments/West-Palm-Beach_FL","city":"West Palm Beach Apartments for Rent","text":"West Palm Beach Apartments for Rent"},{"url":"https://www.realtor.com/apartments/Boca-Raton_FL","city":"Boca Raton Apartments for Rent","text":"Boca Raton Apartments for Rent"},{"url":"https://www.realtor.com/apartments/Hollywood_FL","city":"Hollywood Apartments for Rent","text":"Hollywood Apartments for Rent"},{"url":"https://www.realtor.com/apartments/Sarasota_FL","city":"Sarasota Apartments for Rent","text":"Sarasota Apartments for Rent"},{"url":"https://www.realtor.com/apartments/Delray-Beach_FL","city":"Delray Beach Apartments for Rent","text":"Delray Beach Apartments for Rent"},{"url":"https://www.realtor.com/apartments/Doral_FL","city":"Doral Apartments for Rent","text":"Doral Apartments for Rent"},{"url":"https://www.realtor.com/apartments/Sunny-Isles-Beach_FL","city":"Sunny Isles Beach Apartments for Rent","text":"Sunny Isles Beach Apartments for Rent"},{"url":"https://www.realtor.com/apartments/Fort-Myers_FL","city":"Fort Myers Apartments for Rent","text":"Fort Myers Apartments for Rent"},{"url":"https://www.realtor.com/apartments/Pompano-Beach_FL","city":"Pompano Beach Apartments for Rent","text":"Pompano Beach Apartments for Rent"},{"url":"https://www.realtor.com/apartments/Clearwater_FL","city":"Clearwater Apartments for Rent","text":"Clearwater Apartments for Rent"},{"url":"https://www.realtor.com/apartments/Cape-Coral_FL","city":"Cape Coral Apartments for Rent","text":"Cape Coral Apartments for Rent"},{"url":"https://www.realtor.com/apartments/Kissimmee_FL","city":"Kissimmee Apartments for Rent","text":"Kissimmee Apartments for Rent"},{"url":"https://www.realtor.com/apartments/Pembroke-Pines_FL","city":"Pembroke Pines Apartments for Rent","text":"Pembroke Pines Apartments for Rent"},{"url":"https://www.realtor.com/apartments/Bradenton_FL","city":"Bradenton Apartments for Rent","text":"Bradenton Apartments for Rent"},{"url":"https://www.realtor.com/apartments/Plantation_Broward-County_FL","city":"Plantation Apartments for Rent","text":"Plantation Apartments for Rent"},{"url":"https://www.realtor.com/apartments/Hallandale-Beach_FL","city":"Hallandale Beach Apartments for Rent","text":"Hallandale Beach Apartments for Rent"},{"url":"https://www.realtor.com/apartments/Boynton-Beach_FL","city":"Boynton Beach Apartments for Rent","text":"Boynton Beach Apartments for Rent"},{"url":"https://www.realtor.com/apartments/Aventura_FL","city":"Aventura Apartments for Rent","text":"Aventura Apartments for Rent"},{"url":"https://www.realtor.com/apartments/Coral-Springs_FL","city":"Coral Springs Apartments for Rent","text":"Coral Springs Apartments for Rent"},{"url":"https://www.realtor.com/apartments/Vero-Beach_FL","city":"Vero Beach Apartments for Rent","text":"Vero Beach Apartments for Rent"},{"url":"https://www.realtor.com/apartments/Wellington_FL","city":"Wellington Apartments for Rent","text":"Wellington Apartments for Rent"}]}},"userAgent":"Mozilla/5.0 (Windows NT 10.0; Win64; x64; rv:104.0) Gecko/20100101 Firefox/104.0","jsonld":{"schemaTypes":["BreadcrumbList","WebPage","SingleFamilyResidence","Event","Dataset","ItemPage","ViewAction","Product"],"content":{"silos":"SRP","url":"/apartments/Sarasota-County_FL/type-single-family-home/price-na-2150/sqft-1250/available-na-08_31_2022","inLanguage":"EN-US","area_type":"county","filters":{"price_reduced":false},"breadcrumbUrl":{"state":"www.realtor.com/realestateandhomes-search/Florida/overview","county":"www.realtor.com/apartments/Sarasota-County_FL"},"location":{"state_code":"FL","state":"Florida","county":"Sarasota County"},"results":[{"property_id":"5748017901","prop_type":"single_family","address":{"city":"Sarasota","coordinate":{"lat":27.247983,"lon":-82.508868},"country":"USA","line":"7427 Cass Cir","postal_code":"34231","state":"Florida","state_code":"FL","street_direction":null,"street_name":"Cass","street_number":"7427","street_post_direction":null,"street_suffix":"Cir","unit":null},"primary_photo":{"description":null,"href":"https://ap.rdcpix.com/ad6924a13b8d48c602e1e98710dac2e7l-m3366291411s.jpg","type":null},"open_houses":null,"source":{"agents":null,"id":"RXUN","listing_id":"5258109","community_id":null,"name":"RentlinxUnits","type":"unit_rental"},"list_price":2095,"permalink":"7427-Cass-Cir_Sarasota_FL_34231_M57480-17901"},{"property_id":"5501732176","prop_type":"single_family","address":{"city":"North Port","coordinate":{"lat":27.053973,"lon":-82.134684},"country":"USA","line":"3132 Johannesberg Rd","postal_code":"34288","state":"Florida","state_code":"FL","street_direction":null,"street_name":"Johannesberg","street_number":"3132","street_post_direction":null,"street_suffix":"Rd","unit":null},"primary_photo":{"description":null,"href":"https://ap.rdcpix.com/4ddd5a3fbe29b64811423508333940b5l-m2103257853s.jpg","type":null},"open_houses":null,"source":{"agents":null,"id":"TURN","listing_id":"413783","community_id":null,"name":"TenantTurner","type":"unit_rental"},"list_price":2045,"permalink":"3132-Johannesberg-Rd_North-Port_FL_34288_M55017-32176"},{"property_id":"5623701866","prop_type":"single_family","address":{"city":"Venice","coordinate":{"lat":27.055715,"lon":-82.367008},"country":"USA","line":"226 Southampton Ln # 257","postal_code":"34293","state":"Florida","state_code":"FL","street_direction":null,"street_name":"Southampton","street_number":"226","street_post_direction":null,"street_suffix":"Ln","unit":"# 257"},"primary_photo":{"description":null,"href":"https://ap.rdcpix.com/c31b7978c79c96d136c45a1d3ea1ad73l-m971866278s.jpg","type":null},"open_houses":null,"source":{"agents":[{"agent_id":"281517938","agent_name":"Andy Moore"}],"id":"ORFL","listing_id":"A4519044","community_id":null,"name":"StellarMLS","type":"mls"},"list_price":2105,"permalink":"226-Southampton-Ln-257_Venice_FL_34293_M56237-01866"},{"property_id":"5684697776","prop_type":"single_family","address":{"city":"Venice","coordinate":{"lat":27.081985,"lon":-82.338486},"country":"USA","line":"11706 Tempest Harbor Loop","postal_code":"34292","state":"Florida","state_code":"FL","street_direction":null,"street_name":"Tempest Harbor","street_number":"11706","street_post_direction":null,"street_suffix":"Loop","unit":null},"primary_photo":{"description":null,"href":"https://ap.rdcpix.com/6b4df160d4836c270d07a84a3a79225fl-m1066910585s.jpg","type":null},"open_houses":null,"source":{"agents":null,"id":"PLPM","listing_id":"20762","community_id":null,"name":"PathlightPropertyManagement","type":"unit_rental"},"list_price":2145,"permalink":"11706-Tempest-Harbor-Loop_Venice_FL_34292_M56846-97776"},{"property_id":"6814560951","prop_type":"single_family","address":{"city":"North Port","coordinate":{"lat":27.07752,"lon":-82.165067},"country":"USA","line":"2650 Oceanside St","postal_code":"34286","state":"Florida","state_code":"FL","street_direction":null,"street_name":"Oceanside","street_number":"2650","street_post_direction":null,"street_suffix":"St","unit":null},"primary_photo":{"description":null,"href":"https://ap.rdcpix.com/24d8fbcc1860e097309999622b3eb9ecl-m1961674107s.jpg","type":null},"open_houses":null,"source":{"agents":[{"agent_id":"256021743","agent_name":"Diana Legg"}],"id":"ORFL","listing_id":"D6125994","community_id":null,"name":"StellarMLS","type":"mls"},"list_price":2000,"permalink":"2650-Oceanside-St_North-Port_FL_34286_M68145-60951"},{"property_id":"5041117302","prop_type":"single_family","address":{"city":"North Port","coordinate":{"lat":27.049011,"lon":-82.120363},"country":"USA","line":"3144 S San Mateo Dr","postal_code":"34288","state":"Florida","state_code":"FL","street_direction":"S","street_name":"San Mateo","street_number":"3144","street_post_direction":null,"street_suffix":"Dr","unit":null},"primary_photo":{"description":null,"href":"https://ap.rdcpix.com/72f9d039a9f57fa555cfaf5749bd399al-m2675532856s.jpg","type":null},"open_houses":null,"source":{"agents":[{"agent_id":"279603801","agent_name":"Stephany Lugo"}],"id":"ORFL","listing_id":"T3394917","community_id":null,"name":"StellarMLS","type":"mls"},"list_price":2019,"permalink":"3144-S-San-Mateo-Dr_North-Port_FL_34288_M50411-17302"},{"property_id":"6723769743","prop_type":"single_family","address":{"city":"North Port","coordinate":{"lat":27.062635,"lon":-82.114553},"country":"USA","line":"1651 New London St","postal_code":"34288","state":"Florida","state_code":"FL","street_direction":null,"street_name":"New London","street_number":"1651","street_post_direction":null,"street_suffix":"St","unit":null},"primary_photo":{"description":null,"href":"https://ap.rdcpix.com/27909f67ba86961a0197ea33c7d39a36l-m673123174s.jpg","type":null},"open_houses":null,"source":{"agents":[{"agent_id":"284502452","agent_name":"Nicole Smith-mayle"}],"id":"ORFL","listing_id":"C7464875","community_id":null,"name":"StellarMLS","type":"mls"},"list_price":2100,"permalink":"1651-New-London-St_North-Port_FL_34288_M67237-69743"},{"property_id":"5234071486","prop_type":"single_family","address":{"city":"Port Charlotte","coordinate":{"lat":26.925385,"lon":-82.257919},"country":"USA","line":"11924 Gretchen Ave","postal_code":"33981","state":"Florida","state_code":"FL","street_direction":null,"street_name":"Gretchen","street_number":"11924","street_post_direction":null,"street_suffix":"Ave","unit":null},"primary_photo":{"description":null,"href":"https://ap.rdcpix.com/f02ee07edd4dedbe7f3eeee16cb3728cl-m426634789s.jpg","type":null},"open_houses":null,"source":{"agents":[{"agent_id":"279603801","agent_name":"Stephany Lugo"}],"id":"ORFL","listing_id":"T3394953","community_id":null,"name":"StellarMLS","type":"mls"},"list_price":2149,"permalink":"11924-Gretchen-Ave_Port-Charlotte_FL_33981_M52340-71486"},{"property_id":"6084613187","prop_type":"single_family","address":{"city":"Port Charlotte","coordinate":{"lat":26.998714,"lon":-82.146933},"country":"USA","line":"18291 Troon Ave","postal_code":"33948","state":"Florida","state_code":"FL","street_direction":null,"street_name":"Troon","street_number":"18291","street_post_direction":null,"street_suffix":"Ave","unit":null},"primary_photo":{"description":null,"href":"https://ap.rdcpix.com/4ad676f67098bae9183b91144f16cff4l-m2007105134s.jpg","type":null},"open_houses":null,"source":{"agents":[{"agent_id":"279603801","agent_name":"Stephany Lugo"}],"id":"ORFL","listing_id":"T3394951","community_id":null,"name":"StellarMLS","type":"mls"},"list_price":1999,"permalink":"18291-Troon-Ave_Port-Charlotte_FL_33948_M60846-13187"},{"property_id":"5961002056","prop_type":"single_family","address":{"city":"Port Charlotte","coordinate":{"lat":27.005711,"lon":-82.098634},"country":"USA","line":"21269 Coachman Ave","postal_code":"33952","state":"Florida","state_code":"FL","street_direction":null,"street_name":"Coachman","street_number":"21269","street_post_direction":null,"street_suffix":"Ave","unit":null},"primary_photo":{"description":null,"href":"https://ap.rdcpix.com/75fcb5535e68c4b84716a5bc34627f1dl-m2436930276s.jpg","type":null},"open_houses":null,"source":{"agents":[{"agent_id":"274500368","agent_name":"Joel Ament"}],"id":"ORFL","listing_id":"C7465061","community_id":null,"name":"StellarMLS","type":"mls"},"list_price":1950,"permalink":"21269-Coachman-Ave_Port-Charlotte_FL_33952_M59610-02056"}],"variableMeasured":["Median List Price $417k","Median Days In Market 49","Median Price per sq.ft $298","Sale/List Price 99.85611510791367%","Active Listings 1534","Median Rent $2.88k"],"schools":["Ashton Elementary School","Southside Elementary School","Phillippi Shores Elementary School","Taylor Ranch Elementary School","Tatum Ridge Elementary School","Lakeview Elementary School","Venice Elementary School","Laurel Nokomis School","Gulf Gate Elementary School","Sarasota Middle School","Sarasota School Of Arts/Sciences","Laurel Nokomis School","Student Leadership Academy","Sky Academy Venice","Imagine School At North Port","Brookside Middle School","Sarasota Suncoast Academy","Island Village Montessori School","Suncoast Polytechnical High School","Imagine School At North Port","Island Village Montessori School","Riverview High School","Venice Senior High School","North Port High School","Sarasota Military Academy","Sarasota High School","Booker High School","Out-Of-Door Academy","Out Of Door Academy-Upper School","Cardinal Mooney Catholic High School","Beyond the Spectrum","Sarasota Christian School","The Tabernacle Christian School","Venice Christian School","Incarnation Catholic School","The NewGate-Field School"],"deep_links":{"ios":"ios-app://336698281/move-rdc/www.realtor.com/apartments/Sarasota-County_FL","android":"android-app://com.move.realtor/move-rdc/www.realtor.com/apartments/Sarasota-County_FL"}}},"optimizely":{"lastUpdated":1661300929024,"userId":"0364a275-d2ee-4918-8ea7-41b8f6ddf7ef","attributes":{"environment":"production","$opt_user_agent":"Mozilla/5.0 (Windows NT 10.0; Win64; x64; rv:104.0) Gecko/20100101 Firefox/104.0","split":"c","split_tcv":"103"}},"split":"c","viewId":"98cd7a42-0173-49c1-a52d-d15014c646d2","key":"98cd7a42-0173-49c1-a52d-d15014c646d2","hostname":"www.realtor.com"},"gnavLocation":null,"optimizely":{"lastUpdated":1661300929024,"userId":"0364a275-d2ee-4918-8ea7-41b8f6ddf7ef","attributes":{"environment":"production","$opt_user_agent":"Mozilla/5.0 (Windows NT 10.0; Win64; x64; rv:104.0) Gecko/20100101 Firefox/104.0","split":"c","split_tcv":"103"}},"userAgent":"Mozilla/5.0 (Windows NT 10.0; Win64; x64; rv:104.0) Gecko/20100101 Firefox/104.0","viewId":"cece9db9-9595-4546-b759-1bd0a2ea1861","cookies":{},"query":{"0":"/type-single-family-home/price-na-2150/sqft-1250/available-na-08_31_2022","searchSlug":"Sarasota-County_FL"},"hostname":"www.realtor.com"},"page":"/apartments","query":{"0":"/type-single-family-home/price-na-2150/sqft-1250/available-na-08_31_2022","searchSlug":"Sarasota-County_FL"},"buildId":"Ch-8sR6324Ub6qDf1TRCl","assetPrefix":"/assets/rentals/prod/ef0eb34","runtimeConfig":{"appVersion":"rdc-x-rentals-rc/v4.60.0","awsAccount":"production"},"isFallback":false,"dynamicIds":["g3TI","QE6K","1RLb","/E+z","8NmS","t+S1"],"customServer":true,"gip":true,"appGip":true}